[{"location_id": "25543906", "name": "Bi-Rite Liquors", "latitude": "37.862378", "longitude": "-122.280943", "rating": null, "num_reviews": null}, {"location_id": "25474214", "name": "The Ice Cream Shop", "latitude": "37.862378", "longitude": "-122.280943", "rating": null, "num_reviews": null}, {"location_id": "378821", "name": "Mehak Indian Cuisine", "latitude": "37.862437", "longitude": "-122.280954", "rating": 3.7, "num_reviews": 14}, {"location_id": "33477309", "name": "Helacio's Deli  & Cafe", "latitude": "37.861607", "longitude": "-122.280606", "rating": 4.0, "num_reviews": 1}, {"location_id": "26992453", "name": "Breads of India", "latitude": "37.862372", "longitude": "-122.281448", "rating": 5.0, "num_reviews": 1}, {"location_id": "378722", "name": "Homemade Cafe", "latitude": "37.862293", "longitude": "-122.281467", "rating": 3.9, "num_reviews": 66}, {"location_id": "5829021", "name": "Psef/Swag", "latitude": "37.86058", "longitude": "-122.28163", "rating": null, "num_reviews": null}, {"location_id": "27993711", "name": "Congregation Beth Israel", "latitude": "37.866053", "longitude": "-122.277854", "rating": null, "num_reviews": null}, {"location_id": "26961358", "name": "Nuttin Butter Cookies", "latitude": "37.86201", "longitude": "-122.28407", "rating": null, "num_reviews": null}, {"location_id": "28165577", "name": "Charlie Dorr Mini Park", "latitude": "37.866485", "longitude": "-122.283983", "rating": null, "num_reviews": null}, {"location_id": "27043500", "name": "Grove Park", "latitude": "37.856282", "longitude": "-122.274113", "rating": null, "num_reviews": null}, {"location_id": "7217483", "name": "The Rotary Peace Grove Lookout", "latitude": "37.85557", "longitude": "-122.28301", "rating": 4.7, "num_reviews": 3}, {"location_id": "16750303", "name": "The Everest Momo", "latitude": "37.87013", "longitude": "-122.28153", "rating": null, "num_reviews": null}, {"location_id": "25494443", "name": "Pasta Glory", "latitude": "37.87038", "longitude": "-122.279899", "rating": null, "num_reviews": null}, {"location_id": "25495522", "name": "Pimp My Pasta", "latitude": "37.87038", "longitude": "-122.279899", "rating": null, "num_reviews": null}, {"location_id": "19812634", "name": "San Pablo Park", "latitude": "37.85585", "longitude": "-122.283978", "rating": 3.8, "num_reviews": 6}, {"location_id": "3645241", "name": "North Beach Pizza - Berkeley", "latitude": "37.870392", "longitude": "-122.279924", "rating": 4.2, "num_reviews": 22}, {"location_id": "294355", "name": "Howard Johnson Berkeley", "latitude": "37.870217", "longitude": "-122.281444", "rating": 3.7, "num_reviews": 120}, {"location_id": "15224289", "name": "Food Truck Foodies", "latitude": "37.8584", "longitude": "-122.28745", "rating": null, "num_reviews": null}, {"location_id": "378870", "name": "Fashion Trade", "latitude": "37.87057", "longitude": "-122.27874", "rating": null, "num_reviews": null}]