[{"location_id": "144407", "name": "San Francisco City Hall", "latitude": "37.77929", "longitude": "-122.41922", "rating": 4.5, "num_reviews": 1071}, {"location_id": "23841371", "name": "Wing Boss", "latitude": "37.78083", "longitude": "-122.41996", "rating": null, "num_reviews": null}, {"location_id": "8539970", "name": "Rangoon Ruby", "latitude": "37.78085", "longitude": "-122.42014", "rating": 4.2, "num_reviews": 37}, {"location_id": "27510597", "name": "San Francisco Overland", "latitude": "37.779051", "longitude": "-122.418856", "rating": 5.0, "num_reviews": 5}, {"location_id": "9752786", "name": "Herbst Theatre", "latitude": "37.779593", "longitude": "-122.420604", "rating": 4.8, "num_reviews": 13}, {"location_id": "27053495", "name": "Salesforce Park", "latitude": "37.781022", "longitude": "-122.419717", "rating": 4.8, "num_reviews": 20}, {"location_id": "531968", "name": "Philharmonia Baroque Orchestra", "latitude": "37.77913", "longitude": "-122.42031", "rating": 5.0, "num_reviews": 3}, {"location_id": "14528992", "name": "Veterans Building", "latitude": "37.77913", "longitude": "-122.42031", "rating": 4.3, "num_reviews": 4}, {"location_id": "142390", "name": "San Francisco Performing Arts Library & Museum", "latitude": "37.77913", "longitude": "-122.42031", "rating": 3.5, "num_reviews": 2}, {"location_id": "23828152", "name": "Dickey's Barbecue Pit", "latitude": "37.780954", "longitude": "-122.420197", "rating": null, "num_reviews": null}, {"location_id": "25504356", "name": "Cantina 590", "latitude": "37.780968", "longitude": "-122.420199", "rating": null, "num_reviews": null}, {"location_id": "493611", "name": "Max's Opera Cafe", "latitude": "37.781189", "longitude": "-122.419669", "rating": 3.5, "num_reviews": 188}, {"location_id": "526082", "name": "Scenic 49 Mile Drive", "latitude": "37.778988", "longitude": "-122.418465", "rating": 4.5, "num_reviews": 471}, {"location_id": "28166860", "name": "Sfac Galleries", "latitude": "37.779748", "longitude": "-122.420991", "rating": null, "num_reviews": null}, {"location_id": "28653426", "name": "Sf Music Day 2024", "latitude": "37.779534", "longitude": "-122.421017", "rating": null, "num_reviews": null}, {"location_id": "104215", "name": "Civic Center", "latitude": "37.779476", "longitude": "-122.41763", "rating": 3.9, "num_reviews": 222}, {"location_id": "142414", "name": "San Francisco Ballet", "latitude": "37.778661", "longitude": "-122.420231", "rating": 4.7, "num_reviews": 150}, {"location_id": "15855496", "name": "The Winter Park At Civic Center", "latitude": "37.77944", "longitude": "-122.41744", "rating": null, "num_reviews": null}, {"location_id": "156729", "name": "War Memorial Opera House", "latitude": "37.778482", "longitude": "-122.420316", "rating": 4.5, "num_reviews": 122}, {"location_id": "23678418", "name": "Prelude at the Opera House", "latitude": "37.778482", "longitude": "-122.420316", "rating": null, "num_reviews": null}]