[{"location_id": "24187476", "name": "Jolly Jolly Coffee & kitchen", "latitude": "37.805678", "longitude": "-122.295866", "rating": null, "num_reviews": null}, {"location_id": "26946201", "name": "Mandela Grocery Cooperative", "latitude": "37.805358", "longitude": "-122.294164", "rating": null, "num_reviews": null}, {"location_id": "21269114", "name": "Annex B", "latitude": "37.80365", "longitude": "-122.29588", "rating": null, "num_reviews": null}, {"location_id": "26589486", "name": "West Oakland Mural Project", "latitude": "37.80711", "longitude": "-122.294563", "rating": null, "num_reviews": null}, {"location_id": "13976887", "name": "The Crucible", "latitude": "37.80496", "longitude": "-122.29064", "rating": null, "num_reviews": null}, {"location_id": "23276139", "name": "7th West", "latitude": "37.80422", "longitude": "-122.290742", "rating": null, "num_reviews": null}, {"location_id": "21309764", "name": "B-Love's Guest House", "latitude": "37.80933", "longitude": "-122.29376", "rating": null, "num_reviews": null}, {"location_id": "5453872", "name": "Fortune Cookie", "latitude": "37.806785", "longitude": "-122.300625", "rating": 4.0, "num_reviews": 1}, {"location_id": "19666710", "name": "Time Out", "latitude": "37.80695", "longitude": "-122.30105", "rating": null, "num_reviews": null}, {"location_id": "27910001", "name": "Family Market", "latitude": "37.810208", "longitude": "-122.295163", "rating": null, "num_reviews": null}, {"location_id": "26892112", "name": "Shrif Market", "latitude": "37.810294", "longitude": "-122.298204", "rating": null, "num_reviews": null}, {"location_id": "345192", "name": "Continental Club", "latitude": "37.81094", "longitude": "-122.2965", "rating": null, "num_reviews": null}, {"location_id": "19666679", "name": "Krispy Krunchy Chicken", "latitude": "37.80468", "longitude": "-122.28827", "rating": null, "num_reviews": null}, {"location_id": "25477701", "name": "Twerkin Chicken", "latitude": "37.811421", "longitude": "-122.295448", "rating": null, "num_reviews": null}, {"location_id": "4837425", "name": "10th & Wood", "latitude": "37.810385", "longitude": "-122.300461", "rating": 4.5, "num_reviews": 4}, {"location_id": "27910518", "name": "Ebgb ~ The Underground Wine Bar", "latitude": "37.812591", "longitude": "-122.300311", "rating": null, "num_reviews": null}, {"location_id": "19269576", "name": "Laugh City", "latitude": "37.79966", "longitude": "-122.28786", "rating": null, "num_reviews": null}, {"location_id": "15172637", "name": "Salam Halal Market & Restaurant", "latitude": "37.802871", "longitude": "-122.284901", "rating": null, "num_reviews": null}, {"location_id": "25495664", "name": "Pita Palace", "latitude": "37.802947", "longitude": "-122.284855", "rating": null, "num_reviews": null}, {"location_id": "24154157", "name": "Kowbird", "latitude": "37.814051", "longitude": "-122.292131", "rating": 5.0, "num_reviews": 1}]