[{"location_id": "8405701", "name": "Spreckels Mansion", "latitude": "37.792709", "longitude": "-122.427503", "rating": 3.4, "num_reviews": 7}, {"location_id": "2103755", "name": "Grace Ann Walden Foodie Tour", "latitude": "37.79264", "longitude": "-122.4262", "rating": 5.0, "num_reviews": 1}, {"location_id": "15347051", "name": "Walter U. Lum Place", "latitude": "37.79264", "longitude": "-122.4262", "rating": 3.0, "num_reviews": 1}, {"location_id": "545906", "name": "Lafayette Park", "latitude": "37.79046", "longitude": "-122.42908", "rating": 4.4, "num_reviews": 47}, {"location_id": "12231002", "name": "San Francisco Heritage", "latitude": "37.79325", "longitude": "-122.42495", "rating": null, "num_reviews": null}, {"location_id": "127938", "name": "Haas - Lilienthal House", "latitude": "37.793358", "longitude": "-122.424778", "rating": 4.4, "num_reviews": 91}, {"location_id": "23792428", "name": "Kasa The Addison San Francisco", "latitude": "37.790056", "longitude": "-122.430349", "rating": 4.2, "num_reviews": 12}, {"location_id": "17652038", "name": "Shop-a-tude Tours", "latitude": "37.79108", "longitude": "-122.42423", "rating": null, "num_reviews": null}, {"location_id": "112311", "name": "Jackson Court San Francisco", "latitude": "37.793028", "longitude": "-122.431108", "rating": 4.3, "num_reviews": 79}, {"location_id": "26964688", "name": "Avenue Fine Food Market", "latitude": "37.794421", "longitude": "-122.425512", "rating": null, "num_reviews": null}, {"location_id": "28185715", "name": "Artsun", "latitude": "37.795099", "longitude": "-122.427659", "rating": null, "num_reviews": null}, {"location_id": "4770830", "name": "Monroe Residence Club", "latitude": "37.791245", "longitude": "-122.423737", "rating": 3.5, "num_reviews": 13}, {"location_id": "6485962", "name": "Mountain Bike San Francisco", "latitude": "37.795143", "longitude": "-122.4269", "rating": 4.9, "num_reviews": 175}, {"location_id": "21214986", "name": "Let's Roam", "latitude": "37.78998", "longitude": "-122.42415", "rating": 4.8, "num_reviews": 4}, {"location_id": "15343586", "name": "Academy of Art University Automobile Museum", "latitude": "37.792798", "longitude": "-122.423476", "rating": 4.3, "num_reviews": 6}, {"location_id": "11811339", "name": "Mezcalito", "latitude": "37.792294", "longitude": "-122.42317", "rating": 3.4, "num_reviews": 27}, {"location_id": "15873646", "name": "We Make Travel Easy", "latitude": "37.79478", "longitude": "-122.43079", "rating": null, "num_reviews": null}, {"location_id": "33364680", "name": "Genji Sushi", "latitude": "37.790092", "longitude": "-122.423396", "rating": null, "num_reviews": null}, {"location_id": "7950201", "name": "Octavia", "latitude": "37.787968", "longitude": "-122.427071", "rating": 4.5, "num_reviews": 228}, {"location_id": "370476", "name": "Gourmet Carousel", "latitude": "37.789061", "longitude": "-122.424051", "rating": 4.1, "num_reviews": 36}]