[{"location_id": "27481292", "name": "Gold Bar Distillery Experiences", "latitude": "37.817158", "longitude": "-122.370825", "rating": 5.0, "num_reviews": 215}, {"location_id": "27904576", "name": "Woods Island Club", "latitude": "37.817223", "longitude": "-122.370686", "rating": null, "num_reviews": null}, {"location_id": "26637726", "name": "Gold Bar Distillery", "latitude": "37.817223", "longitude": "-122.370686", "rating": 5.0, "num_reviews": 64}, {"location_id": "17407875", "name": "Sweet City Stroll", "latitude": "37.81648", "longitude": "-122.370618", "rating": null, "num_reviews": null}, {"location_id": "2615516", "name": "Treasure Fest", "latitude": "37.816518", "longitude": "-122.371553", "rating": 4.4, "num_reviews": 69}, {"location_id": "12987541", "name": "Woods Island Club", "latitude": "37.8165", "longitude": "-122.37045", "rating": 4.5, "num_reviews": 2}, {"location_id": "7101941", "name": "Bliss Dance Esculture", "latitude": "37.81691", "longitude": "-122.37203", "rating": 5.0, "num_reviews": 2}, {"location_id": "1936895", "name": "The Winery SF", "latitude": "37.818", "longitude": "-122.37069", "rating": 3.7, "num_reviews": 12}, {"location_id": "1051657", "name": "Extranomical Tours", "latitude": "37.818054", "longitude": "-122.37104", "rating": 4.4, "num_reviews": 4512}, {"location_id": "3543283", "name": "San Francisco Wine Adventure", "latitude": "37.818123", "longitude": "-122.370165", "rating": null, "num_reviews": null}, {"location_id": "1891708", "name": "Golden Gate Sailing Tours", "latitude": "37.815911", "longitude": "-122.37128", "rating": 4.1, "num_reviews": 49}, {"location_id": "275174", "name": "Treasure Island", "latitude": "37.815953", "longitude": "-122.371814", "rating": 4.2, "num_reviews": 268}, {"location_id": "27091413", "name": "San Francisco Wine Group", "latitude": "37.819673", "longitude": "-122.365611", "rating": null, "num_reviews": null}, {"location_id": "13497261", "name": "Mersea Restaurant & Bar", "latitude": "37.822487", "longitude": "-122.375542", "rating": 4.9, "num_reviews": 748}, {"location_id": "34272536", "name": "Panorama Park", "latitude": "37.810471", "longitude": "-122.36882", "rating": 5.0, "num_reviews": 1}, {"location_id": "14062243", "name": "Kite 415", "latitude": "37.824173", "longitude": "-122.376991", "rating": null, "num_reviews": null}, {"location_id": "156622", "name": "San Francisco-Oakland Bay Bridge", "latitude": "37.810242", "longitude": "-122.364899", "rating": 4.3, "num_reviews": 1829}, {"location_id": "14903840", "name": "Treecraft Distillery", "latitude": "37.825367", "longitude": "-122.373839", "rating": 5.0, "num_reviews": 2}, {"location_id": "3652510", "name": "Treasure Island Wines", "latitude": "37.82564", "longitude": "-122.36905", "rating": 5.0, "num_reviews": 2}, {"location_id": "1461814", "name": "Treasure Island Wines", "latitude": "37.825833", "longitude": "-122.369444", "rating": 4.3, "num_reviews": 7}]