[{"location_id": "531988", "name": "Rotary Nature Center and Waterfowl Refuge", "latitude": "37.80531", "longitude": "-122.25797", "rating": 4.4, "num_reviews": 11}, {"location_id": "27054585", "name": "Lake Merritt Boating Center", "latitude": "37.805113", "longitude": "-122.257646", "rating": 3.0, "num_reviews": 1}, {"location_id": "7314495", "name": "GSBF Bonsai Garden at Lake Merritt", "latitude": "37.806038", "longitude": "-122.257843", "rating": 4.5, "num_reviews": 63}, {"location_id": "27074863", "name": "Palmetum", "latitude": "37.806176", "longitude": "-122.257501", "rating": null, "num_reviews": null}, {"location_id": "27082568", "name": "Community Gardening Program", "latitude": "37.807118", "longitude": "-122.258653", "rating": null, "num_reviews": null}, {"location_id": "1979120", "name": "Lake Merritt Hotel & Apartments", "latitude": "37.8044", "longitude": "-122.26196", "rating": 4.0, "num_reviews": 4}, {"location_id": "1367610", "name": "Terrace Room", "latitude": "37.8044", "longitude": "-122.26196", "rating": 4.0, "num_reviews": 25}, {"location_id": "117256", "name": "Lakeside Park and Garden Center", "latitude": "37.8078", "longitude": "-122.25889", "rating": 4.5, "num_reviews": 46}, {"location_id": "21004789", "name": "Taxi In Oakland", "latitude": "37.80475", "longitude": "-122.26239", "rating": null, "num_reviews": null}, {"location_id": "117254", "name": "Lake Merritt", "latitude": "37.803864", "longitude": "-122.255699", "rating": 4.4, "num_reviews": 931}, {"location_id": "25480937", "name": "Wingstop", "latitude": "37.803234", "longitude": "-122.261572", "rating": null, "num_reviews": null}, {"location_id": "4649160", "name": "Good News Cafe", "latitude": "37.804267", "longitude": "-122.262793", "rating": 4.5, "num_reviews": 2}, {"location_id": "1504347", "name": "The Lake Chalet Seafood Bar & Grill", "latitude": "37.802272", "longitude": "-122.261516", "rating": 3.7, "num_reviews": 256}, {"location_id": "4881453", "name": "Gondola Servizio", "latitude": "37.80223", "longitude": "-122.26151", "rating": 4.6, "num_reviews": 19}, {"location_id": "27040406", "name": "Lake Park Apartments", "latitude": "37.803709", "longitude": "-122.263094", "rating": null, "num_reviews": null}, {"location_id": "156886", "name": "Children's Fairyland", "latitude": "37.808835", "longitude": "-122.260169", "rating": 4.3, "num_reviews": 246}, {"location_id": "15166252", "name": "Enssaro Ethiopian Restaurant", "latitude": "37.808663", "longitude": "-122.255855", "rating": 4.5, "num_reviews": 2}, {"location_id": "27057482", "name": "McElroy Fountain", "latitude": "37.808799", "longitude": "-122.256085", "rating": null, "num_reviews": null}, {"location_id": "26924975", "name": "Gourmet Market", "latitude": "37.804062", "longitude": "-122.264118", "rating": null, "num_reviews": null}, {"location_id": "3911271", "name": "Enssaro Ethiopian Restaurant", "latitude": "37.808838", "longitude": "-122.255936", "rating": 4.4, "num_reviews": 47}]