[{"location_id": "10020844", "name": "Samurai Papa", "latitude": "40.689758", "longitude": "-73.951025", "rating": 4.8, "num_reviews": 6}, {"location_id": "10106434", "name": "Nostrand Cafe", "latitude": "40.689777", "longitude": "-73.951215", "rating": 5.0, "num_reviews": 7}, {"location_id": "21174996", "name": "The Council Cafe", "latitude": "40.689285", "longitude": "-73.951094", "rating": 5.0, "num_reviews": 1}, {"location_id": "19545247", "name": "Baskin-Robbins", "latitude": "40.689835", "longitude": "-73.951645", "rating": null, "num_reviews": null}, {"location_id": "17832340", "name": "Dunkin'", "latitude": "40.690022", "longitude": "-73.951669", "rating": null, "num_reviews": null}, {"location_id": "25239153", "name": "Natural Blend", "latitude": "40.689444", "longitude": "-73.951607", "rating": null, "num_reviews": null}, {"location_id": "24956695", "name": "Popeyes Louisiana Kitchen", "latitude": "40.69051", "longitude": "-73.95132", "rating": null, "num_reviews": null}, {"location_id": "25490042", "name": "Mr natural deli corp", "latitude": "40.689041", "longitude": "-73.951171", "rating": null, "num_reviews": null}, {"location_id": "26948874", "name": "Paul's", "latitude": "40.688923", "longitude": "-73.951093", "rating": null, "num_reviews": null}, {"location_id": "25504480", "name": "Captain Dan's Good Time Tavern", "latitude": "40.688611", "longitude": "-73.951059", "rating": null, "num_reviews": null}, {"location_id": "7342216", "name": "Sugar Hill Restaurant & Supper Club", "latitude": "40.69147", "longitude": "-73.95157", "rating": 3.0, "num_reviews": 2}, {"location_id": "27028351", "name": "Banneker Playground", "latitude": "40.690445", "longitude": "-73.948657", "rating": null, "num_reviews": null}, {"location_id": "20985646", "name": "Sugar Hill Restaurant & Supper Club", "latitude": "40.691574", "longitude": "-73.951576", "rating": null, "num_reviews": null}, {"location_id": "27072899", "name": "Sugar Hill Restaurant & Supper Club", "latitude": "40.691595", "longitude": "-73.951595", "rating": null, "num_reviews": null}, {"location_id": "26884387", "name": "Shamsaldeen Food Market", "latitude": "40.687593", "longitude": "-73.950899", "rating": null, "num_reviews": null}, {"location_id": "26712186", "name": "The Grotto Authentic Caribbean Cuisine", "latitude": "40.687417", "longitude": "-73.950737", "rating": null, "num_reviews": null}, {"location_id": "25522889", "name": "Jerk and Surf", "latitude": "40.691787", "longitude": "-73.952831", "rating": null, "num_reviews": null}, {"location_id": "10804309", "name": "Baron's", "latitude": "40.69098", "longitude": "-73.953912", "rating": 4.5, "num_reviews": 12}, {"location_id": "25093297", "name": "Dept of Culture", "latitude": "40.687191", "longitude": "-73.950783", "rating": 5.0, "num_reviews": 1}, {"location_id": "19914012", "name": "The Clifton Place", "latitude": "40.688526", "longitude": "-73.95439", "rating": null, "num_reviews": null}]