[{"location_id": "4561719", "name": "Mendy's JCM", "latitude": "40.668858", "longitude": "-73.941956", "rating": 3.9, "num_reviews": 19}, {"location_id": "639725", "name": "Jewish Children's Museum", "latitude": "40.669", "longitude": "-73.94196", "rating": 4.3, "num_reviews": 39}, {"location_id": "7287508", "name": "Chocolatte Espresso Bar", "latitude": "40.668945", "longitude": "-73.942076", "rating": 4.4, "num_reviews": 15}, {"location_id": "14519213", "name": "Jewish Brooklyn", "latitude": "40.66876", "longitude": "-73.94211", "rating": 5.0, "num_reviews": 7}, {"location_id": "34266488", "name": "The Mivtzoim Shop", "latitude": "40.668751", "longitude": "-73.94211", "rating": null, "num_reviews": null}, {"location_id": "34268375", "name": "It's Good to Know by Rabbi Manis Friedman", "latitude": "40.668751", "longitude": "-73.94211", "rating": null, "num_reviews": null}, {"location_id": "34266494", "name": "Holy Gems", "latitude": "40.668751", "longitude": "-73.94211", "rating": null, "num_reviews": null}, {"location_id": "1646501", "name": "Chassidic Discovery Daily Walking Tour", "latitude": "40.668949", "longitude": "-73.942238", "rating": 4.7, "num_reviews": 7}, {"location_id": "34266491", "name": "Merkaz Stam", "latitude": "40.668691", "longitude": "-73.942116", "rating": null, "num_reviews": null}, {"location_id": "33107826", "name": "Colel Chabad", "latitude": "40.668848", "longitude": "-73.941618", "rating": null, "num_reviews": null}, {"location_id": "15166268", "name": "Ess and Bentch", "latitude": "40.668594", "longitude": "-73.942057", "rating": 4.5, "num_reviews": 2}, {"location_id": "19721879", "name": "Brooklyn Kingston Rooms", "latitude": "40.668675", "longitude": "-73.942434", "rating": 1.0, "num_reviews": 1}, {"location_id": "23823641", "name": "Chabad Lubavitch World Headquarters", "latitude": "40.66906", "longitude": "-73.94283", "rating": null, "num_reviews": null}, {"location_id": "33107930", "name": "Agudas Chassidei Chabad-Lubavitch", "latitude": "40.669005", "longitude": "-73.942872", "rating": null, "num_reviews": null}, {"location_id": "4716438", "name": "Sweet Expressions", "latitude": "40.668332", "longitude": "-73.942543", "rating": 4.7, "num_reviews": 11}, {"location_id": "33107827", "name": "Kollel Menachem", "latitude": "40.668653", "longitude": "-73.942864", "rating": null, "num_reviews": null}, {"location_id": "23900833", "name": "Eber's Liquor & Wine", "latitude": "40.668234", "longitude": "-73.942553", "rating": null, "num_reviews": null}, {"location_id": "33028372", "name": "Judaica World", "latitude": "40.667963", "longitude": "-73.942092", "rating": null, "num_reviews": null}, {"location_id": "27796165", "name": "Raskin's Fish Market", "latitude": "40.668051", "longitude": "-73.942527", "rating": null, "num_reviews": null}, {"location_id": "26983323", "name": "Holesome Bagels", "latitude": "40.667835", "longitude": "-73.94221", "rating": null, "num_reviews": null}]