[{"location_id": "9597289", "name": "Leo S Bing Theater", "latitude": "34.06372", "longitude": "-118.35689", "rating": 3.0, "num_reviews": 1}, {"location_id": "143830", "name": "La Brea Tar Pits & Museum", "latitude": "34.063881", "longitude": "-118.356445", "rating": 4.4, "num_reviews": 3338}, {"location_id": "106166", "name": "Los Angeles County Museum of Art", "latitude": "34.063931", "longitude": "-118.35923", "rating": 4.5, "num_reviews": 2851}, {"location_id": "3846857", "name": "LACMA Cafe", "latitude": "34.063067", "longitude": "-118.359146", "rating": 3.9, "num_reviews": 118}, {"location_id": "12903209", "name": "Urban Light", "latitude": "34.063024", "longitude": "-118.359237", "rating": 4.6, "num_reviews": 69}, {"location_id": "5840029", "name": "The Trap LA", "latitude": "34.06219", "longitude": "-118.3563", "rating": null, "num_reviews": null}, {"location_id": "12838318", "name": "East Meets West", "latitude": "34.06218", "longitude": "-118.35574", "rating": null, "num_reviews": null}, {"location_id": "127480", "name": "Craft Contemporary", "latitude": "34.062202", "longitude": "-118.355576", "rating": 4.1, "num_reviews": 36}, {"location_id": "23662291", "name": "Academy Museum Of Motion Pictures", "latitude": "34.063484", "longitude": "-118.36084", "rating": 3.5, "num_reviews": 238}, {"location_id": "266814", "name": "Park La Brea", "latitude": "34.065842", "longitude": "-118.355057", "rating": 4.0, "num_reviews": 110}, {"location_id": "8552083", "name": "Los Angeles Bikers", "latitude": "34.061424", "longitude": "-118.358231", "rating": 5.0, "num_reviews": 22}, {"location_id": "2628961", "name": "The Counter", "latitude": "34.062843", "longitude": "-118.35446", "rating": 4.1, "num_reviews": 94}, {"location_id": "24122655", "name": "Fanny's", "latitude": "34.063158", "longitude": "-118.361181", "rating": 3.9, "num_reviews": 20}, {"location_id": "4370679", "name": "Baja Fresh", "latitude": "34.0628", "longitude": "-118.3543", "rating": 3.9, "num_reviews": 10}, {"location_id": "1979169", "name": "Mixt", "latitude": "34.0628", "longitude": "-118.3543", "rating": 4.5, "num_reviews": 11}, {"location_id": "17781384", "name": "Esqapes Immersive Relaxation", "latitude": "34.0628", "longitude": "-118.3543", "rating": 5.0, "num_reviews": 1}, {"location_id": "33100897", "name": "Descanso Restaurant Los Angeles", "latitude": "34.062682", "longitude": "-118.354239", "rating": 4.0, "num_reviews": 2}, {"location_id": "9806761", "name": "Wadee Spa", "latitude": "34.06386", "longitude": "-118.3617", "rating": 4.0, "num_reviews": 1}, {"location_id": "8042179", "name": "Callender's Grill", "latitude": "34.062471", "longitude": "-118.354057", "rating": 4.1, "num_reviews": 17}, {"location_id": "537059", "name": "Irish Molly Malone's Pub", "latitude": "34.065275", "longitude": "-118.361683", "rating": 4.0, "num_reviews": 22}]