[{"location_id": "6154241", "name": "East Village", "latitude": "40.726647", "longitude": "-73.983089", "rating": 4.2, "num_reviews": 122}, {"location_id": "425885", "name": "Odessa", "latitude": "40.72636", "longitude": "-73.98334", "rating": 3.9, "num_reviews": 58}, {"location_id": "5843683", "name": "The Belgian Room", "latitude": "40.72686", "longitude": "-73.9833", "rating": null, "num_reviews": null}, {"location_id": "8665597", "name": "Superiority Burger", "latitude": "40.726482", "longitude": "-73.983505", "rating": 4.5, "num_reviews": 79}, {"location_id": "25382490", "name": "Caleta", "latitude": "40.726944", "longitude": "-73.983116", "rating": null, "num_reviews": null}, {"location_id": "25440425", "name": "99\u00a2 Pizza & Hot Dog", "latitude": "40.726945", "longitude": "-73.983117", "rating": null, "num_reviews": null}, {"location_id": "15623852", "name": "TabeTomo", "latitude": "40.72694", "longitude": "-73.983156", "rating": 4.5, "num_reviews": 12}, {"location_id": "7227940", "name": "Empellon Al Pastor", "latitude": "40.726708", "longitude": "-73.983498", "rating": 4.1, "num_reviews": 35}, {"location_id": "25496194", "name": "Pop's Eat Rite", "latitude": "40.726908", "longitude": "-73.983347", "rating": null, "num_reviews": null}, {"location_id": "33336608", "name": "Moody Tongue Pizza", "latitude": "40.726909", "longitude": "-73.983347", "rating": null, "num_reviews": null}, {"location_id": "26994181", "name": "St. Dymphna's", "latitude": "40.726439", "longitude": "-73.983577", "rating": null, "num_reviews": null}, {"location_id": "27763052", "name": "Sushi Mumi", "latitude": "40.726738", "longitude": "-73.983552", "rating": null, "num_reviews": null}, {"location_id": "26887711", "name": "Crispiano", "latitude": "40.726773", "longitude": "-73.983582", "rating": 5.0, "num_reviews": 2}, {"location_id": "10125472", "name": "Avital Food Tours", "latitude": "40.726063", "longitude": "-73.983177", "rating": 5.0, "num_reviews": 97}, {"location_id": "12458691", "name": "Tramonti Pizza", "latitude": "40.726789", "longitude": "-73.983575", "rating": 4.8, "num_reviews": 28}, {"location_id": "3613478", "name": "10 Degrees", "latitude": "40.72695", "longitude": "-73.98348", "rating": 4.2, "num_reviews": 37}, {"location_id": "27699139", "name": "Alt.coffee", "latitude": "40.727096", "longitude": "-73.982974", "rating": null, "num_reviews": null}, {"location_id": "7903406", "name": "Ray's Candy Store", "latitude": "40.726307", "longitude": "-73.983658", "rating": 4.9, "num_reviews": 31}, {"location_id": "445662", "name": "Yuca Bar", "latitude": "40.726206", "longitude": "-73.983621", "rating": 4.1, "num_reviews": 165}, {"location_id": "12059495", "name": "Hanoi House", "latitude": "40.727013", "longitude": "-73.983551", "rating": 4.6, "num_reviews": 38}]