[{"location_id": "1206124", "name": "Dolores Place Bed and Breakfast", "latitude": "37.75041", "longitude": "-122.42611", "rating": 4.2, "num_reviews": 26}, {"location_id": "23679088", "name": "Mr. Digby's Bar & Restaurant", "latitude": "37.751833", "longitude": "-122.427213", "rating": 3.7, "num_reviews": 3}, {"location_id": "34254054", "name": "Grand Lake Kitchen - Noe Valley", "latitude": "37.751845", "longitude": "-122.427288", "rating": null, "num_reviews": null}, {"location_id": "5096495", "name": "Happy Donuts", "latitude": "37.751612", "longitude": "-122.427602", "rating": 4.4, "num_reviews": 8}, {"location_id": "26636738", "name": "Bistro Ember", "latitude": "37.750213", "longitude": "-122.427569", "rating": 5.0, "num_reviews": 5}, {"location_id": "33407800", "name": "Ingredients", "latitude": "37.750213", "longitude": "-122.427569", "rating": 5.0, "num_reviews": 1}, {"location_id": "26952739", "name": "Shufat Market", "latitude": "37.751605", "longitude": "-122.427691", "rating": null, "num_reviews": null}, {"location_id": "920263", "name": "Jump Start Coffee & Grocery", "latitude": "37.7521", "longitude": "-122.4232", "rating": 5.0, "num_reviews": 1}, {"location_id": "368787", "name": "LoveJoy's Tea Room", "latitude": "37.749328", "longitude": "-122.427208", "rating": 4.3, "num_reviews": 86}, {"location_id": "19335060", "name": "Bernal Heights Pizzeria", "latitude": "37.749058", "longitude": "-122.426964", "rating": 3.5, "num_reviews": 2}, {"location_id": "3652559", "name": "Fiore Caffe", "latitude": "37.752075", "longitude": "-122.422775", "rating": 4.5, "num_reviews": 39}, {"location_id": "226828", "name": "Noe's Nest Bed And Breakfast", "latitude": "37.751099", "longitude": "-122.422427", "rating": 4.5, "num_reviews": 152}, {"location_id": "7113712", "name": "The Dubliner", "latitude": "37.751831", "longitude": "-122.42832", "rating": 4.8, "num_reviews": 4}, {"location_id": "13114931", "name": "Episode Salon & Spa", "latitude": "37.749016", "longitude": "-122.42726", "rating": null, "num_reviews": null}, {"location_id": "10170035", "name": "Olive This Olive That", "latitude": "37.751205", "longitude": "-122.428665", "rating": 5.0, "num_reviews": 4}, {"location_id": "14416804", "name": "Hi-way Burgers", "latitude": "37.75149", "longitude": "-122.42876", "rating": 4.3, "num_reviews": 7}, {"location_id": "368739", "name": "Chloe's Cafe", "latitude": "37.748605", "longitude": "-122.427027", "rating": 4.5, "num_reviews": 88}, {"location_id": "17406988", "name": "Family Travel Experiences", "latitude": "37.75352", "longitude": "-122.42671", "rating": null, "num_reviews": null}, {"location_id": "3652298", "name": "Saru Sushi Bar", "latitude": "37.75181", "longitude": "-122.42879", "rating": 4.6, "num_reviews": 49}, {"location_id": "28186385", "name": "Noe Valley Town Square", "latitude": "37.751391", "longitude": "-122.428964", "rating": null, "num_reviews": null}]