[{"location_id": "269193", "name": "Lolly the Trolley", "latitude": "41.48987", "longitude": "-81.69945", "rating": 4.6, "num_reviews": 414}, {"location_id": "17747831", "name": "Cleveland Script Sign - The Foundry", "latitude": "41.489868", "longitude": "-81.699448", "rating": null, "num_reviews": null}, {"location_id": "12683147", "name": "Brick & Barrel", "latitude": "41.489491", "longitude": "-81.700786", "rating": 4.6, "num_reviews": 8}, {"location_id": "5831114", "name": "Sainato's at Rivergate", "latitude": "41.48922", "longitude": "-81.70079", "rating": null, "num_reviews": null}, {"location_id": "4085198", "name": "Sainato's at Rivergate", "latitude": "41.489212", "longitude": "-81.700802", "rating": 4.1, "num_reviews": 37}, {"location_id": "24826706", "name": "Brewdog Cleveland", "latitude": "41.492597", "longitude": "-81.697956", "rating": 3.3, "num_reviews": 7}, {"location_id": "28169900", "name": "Brewdog Cleveland Outpost", "latitude": "41.492613", "longitude": "-81.697847", "rating": null, "num_reviews": null}, {"location_id": "6999685", "name": "Merwin's Wharf", "latitude": "41.48938", "longitude": "-81.702511", "rating": 3.8, "num_reviews": 215}, {"location_id": "511114", "name": "Major Hoopples", "latitude": "41.487265", "longitude": "-81.700736", "rating": 4.2, "num_reviews": 12}, {"location_id": "27021290", "name": "Canal Basin Park", "latitude": "41.494693", "longitude": "-81.69953", "rating": null, "num_reviews": null}, {"location_id": "2254942", "name": "The Flat Iron Cafe", "latitude": "41.494303", "longitude": "-81.701862", "rating": 4.0, "num_reviews": 103}, {"location_id": "34242012", "name": "Irishtown Bend Taproom at Market Garden Brewery", "latitude": "41.486136", "longitude": "-81.702852", "rating": null, "num_reviews": null}, {"location_id": "28169895", "name": "Scranton Flats", "latitude": "41.487125", "longitude": "-81.69369", "rating": null, "num_reviews": null}, {"location_id": "27085885", "name": "Abbey Park", "latitude": "41.484911", "longitude": "-81.697198", "rating": null, "num_reviews": null}, {"location_id": "8113994", "name": "Glass Bubble Project", "latitude": "41.486149", "longitude": "-81.70417", "rating": 4.9, "num_reviews": 32}, {"location_id": "3592698", "name": "Veterans' Memorial (Detroit-Superior) Bridge", "latitude": "41.49386", "longitude": "-81.70476", "rating": 4.0, "num_reviews": 2}, {"location_id": "966758", "name": "Phoenix Cafe", "latitude": "41.493684", "longitude": "-81.704977", "rating": 4.3, "num_reviews": 9}, {"location_id": "3538519", "name": "Nano Brew Cleveland", "latitude": "41.486097", "longitude": "-81.704704", "rating": 4.0, "num_reviews": 147}, {"location_id": "27504382", "name": "Abbey Apartments by Barsala", "latitude": "41.484383", "longitude": "-81.697868", "rating": null, "num_reviews": null}, {"location_id": "4766155", "name": "Casa La Luna", "latitude": "41.494259", "longitude": "-81.704956", "rating": 4.5, "num_reviews": 228}]