[{"location_id": "20411224", "name": "Tea & Others", "latitude": "37.771435", "longitude": "-122.436867", "rating": null, "num_reviews": null}, {"location_id": "27896854", "name": "Ken", "latitude": "37.771477", "longitude": "-122.436917", "rating": null, "num_reviews": null}, {"location_id": "23414191", "name": "Q's Sandwich Shop", "latitude": "37.77152", "longitude": "-122.43688", "rating": 4.5, "num_reviews": 2}, {"location_id": "5104552", "name": "Bus Stop Pizza", "latitude": "37.771541", "longitude": "-122.436879", "rating": 5.0, "num_reviews": 1}, {"location_id": "11658696", "name": "Powder", "latitude": "37.771591", "longitude": "-122.436965", "rating": 4.4, "num_reviews": 26}, {"location_id": "26832671", "name": "Souvenir Coffee", "latitude": "37.771629", "longitude": "-122.436986", "rating": 4.5, "num_reviews": 2}, {"location_id": "7020341", "name": "Society Cabaret", "latitude": "37.769967", "longitude": "-122.434901", "rating": 4.8, "num_reviews": 13}, {"location_id": "15356514", "name": "Charles L. Hinkel House", "latitude": "37.77182", "longitude": "-122.43677", "rating": 4.0, "num_reviews": 1}, {"location_id": "6706030", "name": "Zen Day Spa", "latitude": "37.771316", "longitude": "-122.434979", "rating": 5.0, "num_reviews": 2}, {"location_id": "11635931", "name": "Yoga Garden SF", "latitude": "37.77198", "longitude": "-122.43686", "rating": 1.5, "num_reviews": 2}, {"location_id": "468519", "name": "The Grind", "latitude": "37.771431", "longitude": "-122.435073", "rating": 4.3, "num_reviews": 114}, {"location_id": "26964452", "name": "Santa Clara Natural Organic Market", "latitude": "37.771629", "longitude": "-122.435307", "rating": null, "num_reviews": null}, {"location_id": "2413212", "name": "The Little Chihuahua", "latitude": "37.772047", "longitude": "-122.437034", "rating": 4.4, "num_reviews": 82}, {"location_id": "4102421", "name": "The Page", "latitude": "37.77211", "longitude": "-122.43689", "rating": 4.0, "num_reviews": 6}, {"location_id": "26956205", "name": "The Page", "latitude": "37.77212", "longitude": "-122.437048", "rating": null, "num_reviews": null}, {"location_id": "32842348", "name": "Gigi's", "latitude": "37.772095", "longitude": "-122.437378", "rating": null, "num_reviews": null}, {"location_id": "25116870", "name": "Massage Grotto SF - Duboce Triangle", "latitude": "37.768398", "longitude": "-122.435997", "rating": 5.0, "num_reviews": 1}, {"location_id": "14766117", "name": "Winding Stairway", "latitude": "37.77072", "longitude": "-122.43926", "rating": 3.0, "num_reviews": 1}, {"location_id": "12854089", "name": "Sightglass Coffee", "latitude": "37.772317", "longitude": "-122.437488", "rating": 4.0, "num_reviews": 16}, {"location_id": "2302983", "name": "Ragazza", "latitude": "37.772448", "longitude": "-122.437475", "rating": 4.2, "num_reviews": 111}]