[{"location_id": "8385811", "name": "Battery Spencer", "latitude": "37.8275", "longitude": "-122.51085", "rating": 4.8, "num_reviews": 227}, {"location_id": "27019569", "name": "Headlands Center For the Arts", "latitude": "37.829712", "longitude": "-122.522547", "rating": null, "num_reviews": null}, {"location_id": "12391330", "name": "Kirby Cove Beach", "latitude": "37.82645", "longitude": "-122.50832", "rating": 4.6, "num_reviews": 10}, {"location_id": "11930123", "name": "Black Sands Beach", "latitude": "37.826092", "longitude": "-122.507736", "rating": 5.0, "num_reviews": 4}, {"location_id": "2578161", "name": "Nike Missile Site SF-88", "latitude": "37.82723", "longitude": "-122.527528", "rating": 4.7, "num_reviews": 96}]