[{"location_id": "10491552", "name": "Historic Downtown Walking Tour- Johnny Anaya", "latitude": "35.19737", "longitude": "-111.64925", "rating": 4.8, "num_reviews": 5}, {"location_id": "3178879", "name": "Off The Beaten Path Grand Canyon Excursions", "latitude": "35.19737", "longitude": "-111.64925", "rating": 5.0, "num_reviews": 1}, {"location_id": "33504570", "name": "Route 66 Street Mural", "latitude": "35.197342", "longitude": "-111.649248", "rating": 5.0, "num_reviews": 1}, {"location_id": "6765623", "name": "The McMillan", "latitude": "35.197689", "longitude": "-111.64923", "rating": 4.0, "num_reviews": 149}, {"location_id": "559995", "name": "Flagstaff Visitor Center", "latitude": "35.197353", "longitude": "-111.6492", "rating": 4.5, "num_reviews": 629}, {"location_id": "10318951", "name": "Peace Surplus", "latitude": "35.19798", "longitude": "-111.64957", "rating": 4.3, "num_reviews": 19}, {"location_id": "5833928", "name": "Collins Irish Pub and Grill", "latitude": "35.197626", "longitude": "-111.649074", "rating": 3.9, "num_reviews": 44}, {"location_id": "1021882", "name": "Collins Irish Pub & Grill", "latitude": "35.197633", "longitude": "-111.649026", "rating": 3.8, "num_reviews": 329}, {"location_id": "335836", "name": "Alpine Pizza", "latitude": "35.197927", "longitude": "-111.649171", "rating": 3.6, "num_reviews": 153}, {"location_id": "33473843", "name": "Puebla Sunrise Cafe", "latitude": "35.196975", "longitude": "-111.650252", "rating": 4.3, "num_reviews": 4}, {"location_id": "23746453", "name": "Foret Flg", "latitude": "35.19717", "longitude": "-111.65046", "rating": 4.7, "num_reviews": 16}, {"location_id": "620439", "name": "Karma Sushi Bar Grill", "latitude": "35.197647", "longitude": "-111.648787", "rating": 4.3, "num_reviews": 500}, {"location_id": "3721222", "name": "Aspen Deli", "latitude": "35.198246", "longitude": "-111.64986", "rating": 4.6, "num_reviews": 38}, {"location_id": "16805000", "name": "Stronghold Coffee Company", "latitude": "35.196934", "longitude": "-111.650269", "rating": 5.0, "num_reviews": 8}, {"location_id": "15697994", "name": "Starrlight Books", "latitude": "35.19809", "longitude": "-111.64904", "rating": 4.0, "num_reviews": 2}, {"location_id": "2255038", "name": "Altitudes Bar & Grill", "latitude": "35.196994", "longitude": "-111.650421", "rating": 3.7, "num_reviews": 249}, {"location_id": "26309413", "name": "Mountain Top Tap Room", "latitude": "35.197561", "longitude": "-111.648672", "rating": 5.0, "num_reviews": 5}, {"location_id": "10224033", "name": "Fizzy Bella Bath Boutique", "latitude": "35.19826", "longitude": "-111.64919", "rating": 5.0, "num_reviews": 2}, {"location_id": "12671931", "name": "Top Hat Taxi & Tours", "latitude": "35.197765", "longitude": "-111.64867", "rating": 2.3, "num_reviews": 4}, {"location_id": "12693313", "name": "Re-Birthday Info Shoppe & Boutique", "latitude": "35.196819", "longitude": "-111.65032", "rating": null, "num_reviews": null}]