[{"location_id": "104369", "name": "Tenement Museum", "latitude": "40.718792", "longitude": "-73.989998", "rating": 4.6, "num_reviews": 6947}, {"location_id": "15065973", "name": "Soccer Walks NYC", "latitude": "40.71883", "longitude": "-73.98998", "rating": null, "num_reviews": null}, {"location_id": "3217975", "name": "Grey Lady", "latitude": "40.718876", "longitude": "-73.990214", "rating": 4.0, "num_reviews": 105}, {"location_id": "23715063", "name": "The Historic Blue Moon Hotel", "latitude": "40.718643", "longitude": "-73.989845", "rating": 4.8, "num_reviews": 359}, {"location_id": "18717023", "name": "New York Local Tour", "latitude": "40.7187", "longitude": "-73.99031", "rating": 5.0, "num_reviews": 12}, {"location_id": "25338268", "name": "Sweet Dreams Caf\u00e9", "latitude": "40.718608", "longitude": "-73.98978", "rating": 5.0, "num_reviews": 17}, {"location_id": "425793", "name": "Congee Village", "latitude": "40.718659", "longitude": "-73.990354", "rating": 3.9, "num_reviews": 220}, {"location_id": "7250330", "name": "Sourced Adventures", "latitude": "40.71875", "longitude": "-73.98964", "rating": 4.6, "num_reviews": 386}, {"location_id": "9749792", "name": "Excuse My French", "latitude": "40.718483", "longitude": "-73.989957", "rating": 4.8, "num_reviews": 73}, {"location_id": "26969864", "name": "98 Orchard", "latitude": "40.718521", "longitude": "-73.989821", "rating": null, "num_reviews": null}, {"location_id": "33410885", "name": "Settembrini Trattoria", "latitude": "40.718572", "longitude": "-73.989734", "rating": null, "num_reviews": null}, {"location_id": "34435119", "name": "Present Momentz", "latitude": "40.718463", "longitude": "-73.989879", "rating": null, "num_reviews": null}, {"location_id": "27081830", "name": "Pioneers Go East Collective", "latitude": "40.718749", "longitude": "-73.989578", "rating": null, "num_reviews": null}, {"location_id": "23520332", "name": "Whipped Urban Dessert Lab", "latitude": "40.718481", "longitude": "-73.990286", "rating": 4.0, "num_reviews": 4}, {"location_id": "3627274", "name": "Top Hops", "latitude": "40.718406", "longitude": "-73.990081", "rating": 4.6, "num_reviews": 103}, {"location_id": "4114338", "name": "Starbucks", "latitude": "40.719221", "longitude": "-73.990178", "rating": 3.4, "num_reviews": 25}, {"location_id": "15167188", "name": "Green Star Foods", "latitude": "40.718637", "longitude": "-73.989407", "rating": null, "num_reviews": null}, {"location_id": "27019611", "name": "Mark Miller Gallery", "latitude": "40.718268", "longitude": "-73.990023", "rating": null, "num_reviews": null}, {"location_id": "26797778", "name": "The DL Rooftop & Lounge", "latitude": "40.718647", "longitude": "-73.98937", "rating": 5.0, "num_reviews": 165}, {"location_id": "25506858", "name": "Chinese Yum! Yum!", "latitude": "40.718594", "longitude": "-73.989385", "rating": null, "num_reviews": null}]