[{"location_id": "372212", "name": "Scoma's Restaurant", "latitude": "37.808926", "longitude": "-122.418251", "rating": 4.3, "num_reviews": 6385}, {"location_id": "6439826", "name": "Lovely Martha Sportfishing", "latitude": "37.80809", "longitude": "-122.41782", "rating": 4.9, "num_reviews": 19}, {"location_id": "4108139", "name": "Bass Tub Sportfishing", "latitude": "37.80809", "longitude": "-122.41782", "rating": 5.0, "num_reviews": 26}, {"location_id": "2482858", "name": "Frank's Fisherman", "latitude": "37.807995", "longitude": "-122.418533", "rating": 4.1, "num_reviews": 14}, {"location_id": "3243404", "name": "Silver Fox Fishing and Tours", "latitude": "37.808189", "longitude": "-122.417077", "rating": 4.9, "num_reviews": 13}, {"location_id": "1007177", "name": "In-N-Out Burger", "latitude": "37.80783", "longitude": "-122.418469", "rating": 3.9, "num_reviews": 2309}, {"location_id": "19119968", "name": "Zea Gallery", "latitude": "37.808182", "longitude": "-122.416832", "rating": null, "num_reviews": 1}, {"location_id": "6434371", "name": "Wild Wave Sport Fishing Charters", "latitude": "37.808246", "longitude": "-122.416643", "rating": 5.0, "num_reviews": 43}, {"location_id": "15121825", "name": "Nautilus Excursions", "latitude": "37.808254", "longitude": "-122.416618", "rating": 5.0, "num_reviews": 1}, {"location_id": "4111787", "name": "Starbucks Anchorage", "latitude": "37.807735", "longitude": "-122.417489", "rating": 3.8, "num_reviews": 118}, {"location_id": "12524226", "name": "The Crepe Cafe", "latitude": "37.807745", "longitude": "-122.418732", "rating": 3.9, "num_reviews": 99}, {"location_id": "13563916", "name": "Krispy Kreme Doughnuts", "latitude": "37.807636", "longitude": "-122.418372", "rating": 4.1, "num_reviews": 85}, {"location_id": "4472389", "name": "Flash Sport Fishing", "latitude": "37.80816", "longitude": "-122.41658", "rating": 5.0, "num_reviews": 12}, {"location_id": "26955746", "name": "Pepper Palace", "latitude": "37.807724", "longitude": "-122.418889", "rating": null, "num_reviews": null}, {"location_id": "3613162", "name": "Golden Gate City Hop-On Tours", "latitude": "37.807709", "longitude": "-122.41887", "rating": 3.9, "num_reviews": 238}, {"location_id": "4137011", "name": "Flash Sport Fishing Charters of San Francisco", "latitude": "37.80827", "longitude": "-122.416461", "rating": 5.0, "num_reviews": 11}, {"location_id": "25149930", "name": "The Holiday Shoppe", "latitude": "37.807983", "longitude": "-122.416718", "rating": null, "num_reviews": null}, {"location_id": "7221256", "name": "City Tour San Francisco", "latitude": "37.807755", "longitude": "-122.419044", "rating": 3.6, "num_reviews": 580}, {"location_id": "26515738", "name": "Battleground VR", "latitude": "37.807789", "longitude": "-122.419117", "rating": null, "num_reviews": null}, {"location_id": "373650", "name": "Cioppino's", "latitude": "37.807796", "longitude": "-122.419189", "rating": 4.0, "num_reviews": 3021}]