[{"location_id": "12725870", "name": "Aftel Archive of Curious Scents", "latitude": "37.87947", "longitude": "-122.26842", "rating": 4.7, "num_reviews": 19}, {"location_id": "10091888", "name": "M. Lowe & Company", "latitude": "37.879457", "longitude": "-122.26903", "rating": 5.0, "num_reviews": 1}, {"location_id": "582405", "name": "Chez Panisse", "latitude": "37.879593", "longitude": "-122.269028", "rating": 4.4, "num_reviews": 1491}, {"location_id": "25518887", "name": "Healthy Spot", "latitude": "37.879907", "longitude": "-122.268468", "rating": null, "num_reviews": null}, {"location_id": "2304410", "name": "Kitchen on Fire", "latitude": "37.87981", "longitude": "-122.2689", "rating": 4.7, "num_reviews": 11}, {"location_id": "4380209", "name": "Kirala2", "latitude": "37.879834", "longitude": "-122.268866", "rating": 4.7, "num_reviews": 20}, {"location_id": "26976068", "name": "Epicurious Garden", "latitude": "37.879834", "longitude": "-122.268866", "rating": null, "num_reviews": null}, {"location_id": "7803083", "name": "Love at First Bite", "latitude": "37.879929", "longitude": "-122.26858", "rating": 4.3, "num_reviews": 7}, {"location_id": "10044343", "name": "Tigerlily", "latitude": "37.879779", "longitude": "-122.269031", "rating": 4.2, "num_reviews": 20}, {"location_id": "33966662", "name": "Juice Appeal", "latitude": "37.879827", "longitude": "-122.268985", "rating": 5.0, "num_reviews": 1}, {"location_id": "32879725", "name": "Ritual Health Acupuncture and Herbalism", "latitude": "37.880005", "longitude": "-122.268387", "rating": null, "num_reviews": null}, {"location_id": "226784", "name": "SenS Hotel & Vanne Bistro Berkeley", "latitude": "37.879336", "longitude": "-122.269359", "rating": 2.9, "num_reviews": 87}, {"location_id": "27852051", "name": "Eggy's Neighborhood Kitchen", "latitude": "37.87991", "longitude": "-122.269139", "rating": 5.0, "num_reviews": 3}, {"location_id": "17862844", "name": "FAVA", "latitude": "37.88012", "longitude": "-122.26862", "rating": 5.0, "num_reviews": 3}, {"location_id": "532036", "name": "Peet's", "latitude": "37.88016", "longitude": "-122.26832", "rating": 4.4, "num_reviews": 8}, {"location_id": "27852050", "name": "Jotmahal Palace Of Indian Cuisine", "latitude": "37.878744", "longitude": "-122.268842", "rating": null, "num_reviews": null}, {"location_id": "5101690", "name": "Lush Gelato", "latitude": "37.879986", "longitude": "-122.269149", "rating": 4.6, "num_reviews": 26}, {"location_id": "913286", "name": "Peet's Coffee", "latitude": "37.880196", "longitude": "-122.268393", "rating": 4.6, "num_reviews": 79}, {"location_id": "371485", "name": "Cheeseboard Pizza", "latitude": "37.879861", "longitude": "-122.269329", "rating": 4.6, "num_reviews": 790}, {"location_id": "13803504", "name": "Cheese Board Pizza", "latitude": "37.87986", "longitude": "-122.26933", "rating": 4.8, "num_reviews": 8}]