[{"location_id": "27054369", "name": "Adam Rogers Park", "latitude": "37.730739", "longitude": "-122.383754", "rating": null, "num_reviews": null}, {"location_id": "27009474", "name": "Youngblood Coleman Playground", "latitude": "37.73811", "longitude": "-122.384182", "rating": null, "num_reviews": null}, {"location_id": "28043961", "name": "Quesada Homestay", "latitude": "37.730663", "longitude": "-122.386283", "rating": null, "num_reviews": null}, {"location_id": "3180823", "name": "Old Skool Cafe", "latitude": "37.73421", "longitude": "-122.3904", "rating": 4.7, "num_reviews": 30}, {"location_id": "33364714", "name": "Noble Roman's", "latitude": "37.736739", "longitude": "-122.389679", "rating": null, "num_reviews": null}, {"location_id": "27534407", "name": "Krispy Krunchy Chicken", "latitude": "37.736759", "longitude": "-122.389694", "rating": null, "num_reviews": null}, {"location_id": "25540962", "name": "Al Pastor Papi", "latitude": "37.738157", "longitude": "-122.380656", "rating": 5.0, "num_reviews": 1}, {"location_id": "28186884", "name": "Mendell Plaza", "latitude": "37.734417", "longitude": "-122.390541", "rating": null, "num_reviews": null}, {"location_id": "25480451", "name": "Willys Food INC / Krispy Krunchy chicken", "latitude": "37.736708", "longitude": "-122.389845", "rating": null, "num_reviews": null}, {"location_id": "2409105", "name": "Speakeasy Ales & Lagers", "latitude": "37.738318", "longitude": "-122.380743", "rating": 4.4, "num_reviews": 19}, {"location_id": "25501088", "name": "SF Food Market", "latitude": "37.736205", "longitude": "-122.390432", "rating": null, "num_reviews": null}, {"location_id": "21205795", "name": "Tato", "latitude": "37.736268", "longitude": "-122.390428", "rating": null, "num_reviews": null}, {"location_id": "23298224", "name": "Tallio's", "latitude": "37.735188", "longitude": "-122.390835", "rating": 5.0, "num_reviews": 1}, {"location_id": "33364728", "name": "Smoke Soul Kitchen", "latitude": "37.736156", "longitude": "-122.390556", "rating": null, "num_reviews": null}, {"location_id": "27080088", "name": "JOY Gallery", "latitude": "37.733566", "longitude": "-122.390907", "rating": null, "num_reviews": null}, {"location_id": "3509879", "name": "Radio Africa Kitchen", "latitude": "37.734774", "longitude": "-122.390983", "rating": 4.5, "num_reviews": 13}, {"location_id": "25484528", "name": "lee's food market", "latitude": "37.729397", "longitude": "-122.386437", "rating": null, "num_reviews": null}, {"location_id": "26927539", "name": "Save Mor Mart", "latitude": "37.736939", "longitude": "-122.390228", "rating": null, "num_reviews": null}, {"location_id": "4416837", "name": "Las Isletas", "latitude": "37.737069", "longitude": "-122.390144", "rating": 3.0, "num_reviews": 2}, {"location_id": "28186829", "name": "Rebel Gallery", "latitude": "37.737646", "longitude": "-122.389879", "rating": null, "num_reviews": null}]