[{"location_id": "99443", "name": "Park West Hotel", "latitude": "40.798474", "longitude": "-73.95993", "rating": 3.2, "num_reviews": 1697}, {"location_id": "33390484", "name": "Jazz Eatery", "latitude": "40.798214", "longitude": "-73.960884", "rating": null, "num_reviews": null}, {"location_id": "26335399", "name": "Kama Central Park Hostel", "latitude": "40.798195", "longitude": "-73.960907", "rating": 3.7, "num_reviews": 15}, {"location_id": "2290672", "name": "Jazz On The Park Hostel", "latitude": "40.798279", "longitude": "-73.961041", "rating": 3.3, "num_reviews": 621}, {"location_id": "122019", "name": "Central Park Apartments", "latitude": "40.796226", "longitude": "-73.961619", "rating": 3.4, "num_reviews": 162}, {"location_id": "13823322", "name": "Teafresho NYC", "latitude": "40.79933", "longitude": "-73.95931", "rating": null, "num_reviews": null}, {"location_id": "25492240", "name": "NY Breakfast Spot", "latitude": "40.799342", "longitude": "-73.959299", "rating": null, "num_reviews": null}, {"location_id": "21273844", "name": "MACC", "latitude": "40.798668", "longitude": "-73.961487", "rating": 5.0, "num_reviews": 1}, {"location_id": "32866116", "name": "Claire's Kitchen Cafe-uws", "latitude": "40.799083", "longitude": "-73.960975", "rating": null, "num_reviews": null}, {"location_id": "12691794", "name": "Osteria 106", "latitude": "40.799036", "longitude": "-73.961675", "rating": 4.7, "num_reviews": 42}, {"location_id": "7766189", "name": "Lasker Rink and Pool", "latitude": "40.796127", "longitude": "-73.954948", "rating": 3.2, "num_reviews": 13}, {"location_id": "1099652", "name": "Harlem Hip-Hop Tours", "latitude": "40.79919", "longitude": "-73.96234", "rating": 3.8, "num_reviews": 6}, {"location_id": "27840185", "name": "Bob's Your Uncle", "latitude": "40.798799", "longitude": "-73.962822", "rating": null, "num_reviews": null}, {"location_id": "33364465", "name": "Dragon 105", "latitude": "40.798219", "longitude": "-73.963307", "rating": null, "num_reviews": null}, {"location_id": "15166236", "name": "Empire Garden", "latitude": "40.798241", "longitude": "-73.963328", "rating": null, "num_reviews": null}, {"location_id": "19906682", "name": "Bob's Your Uncle", "latitude": "40.79884", "longitude": "-73.96294", "rating": 4.7, "num_reviews": 3}, {"location_id": "3598802", "name": "saiguette", "latitude": "40.799037", "longitude": "-73.962782", "rating": 4.5, "num_reviews": 50}, {"location_id": "34254845", "name": "Koo Thai", "latitude": "40.798399", "longitude": "-73.963262", "rating": 4.0, "num_reviews": 1}, {"location_id": "12674935", "name": "New Beauty Spa Zone", "latitude": "40.79834", "longitude": "-73.9633", "rating": null, "num_reviews": null}, {"location_id": "15166689", "name": "Freshy's Deli & Grocery", "latitude": "40.79932", "longitude": "-73.96259", "rating": null, "num_reviews": null}]