[{"location_id": "28189463", "name": "Rock Paper Scissors Collective", "latitude": "37.811778", "longitude": "-122.272795", "rating": null, "num_reviews": null}, {"location_id": "34078895", "name": "Price 4 Charter Buses & Limos Berkeley", "latitude": "37.812", "longitude": "-122.27307", "rating": null, "num_reviews": null}, {"location_id": "25440596", "name": "Bloom Pizzeria", "latitude": "37.809376", "longitude": "-122.273092", "rating": 5.0, "num_reviews": 1}, {"location_id": "3343981", "name": "Hopscotch", "latitude": "37.809307", "longitude": "-122.273079", "rating": 4.4, "num_reviews": 106}, {"location_id": "26728026", "name": "Good Luck Gato", "latitude": "37.809304", "longitude": "-122.273167", "rating": null, "num_reviews": null}, {"location_id": "19140082", "name": "Blum", "latitude": "37.812429", "longitude": "-122.27096", "rating": null, "num_reviews": null}, {"location_id": "6936472", "name": "Belly", "latitude": "37.808995", "longitude": "-122.272588", "rating": 4.2, "num_reviews": 36}, {"location_id": "34428006", "name": "Cajun Claws Seafood Boil House", "latitude": "37.80943", "longitude": "-122.270701", "rating": null, "num_reviews": null}, {"location_id": "24944330", "name": "Marvin Towncar Services", "latitude": "37.809518", "longitude": "-122.270573", "rating": 5.0, "num_reviews": 2}, {"location_id": "11798600", "name": "Plenty", "latitude": "37.808462", "longitude": "-122.272819", "rating": 5.0, "num_reviews": 4}, {"location_id": "21365749", "name": "Moxy Oakland Downtown", "latitude": "37.811809", "longitude": "-122.269585", "rating": 3.3, "num_reviews": 59}, {"location_id": "25163585", "name": "Kinfolx", "latitude": "37.809307", "longitude": "-122.270042", "rating": null, "num_reviews": null}, {"location_id": "15652993", "name": "Taco Bell", "latitude": "37.81228", "longitude": "-122.2696", "rating": null, "num_reviews": null}, {"location_id": "25505638", "name": "Chevron ExtraMile", "latitude": "37.808942", "longitude": "-122.275108", "rating": null, "num_reviews": null}, {"location_id": "12664055", "name": "Shinmai", "latitude": "37.808179", "longitude": "-122.272769", "rating": 4.3, "num_reviews": 7}, {"location_id": "11953238", "name": "Private Chauffeur & Town Car Service", "latitude": "37.80815", "longitude": "-122.27372", "rating": null, "num_reviews": null}, {"location_id": "11907395", "name": "Airport Car Service", "latitude": "37.80815", "longitude": "-122.27372", "rating": 5.0, "num_reviews": 1}, {"location_id": "25488267", "name": "Masabaga", "latitude": "37.809883", "longitude": "-122.269166", "rating": null, "num_reviews": null}, {"location_id": "27049413", "name": "GearBox Gallery", "latitude": "37.813405", "longitude": "-122.275225", "rating": null, "num_reviews": null}, {"location_id": "4838672", "name": "Hutch bar & kitchen", "latitude": "37.80987", "longitude": "-122.26915", "rating": 4.4, "num_reviews": 9}]