[{"location_id": "909431", "name": "Pill Hill Deli", "latitude": "37.819455", "longitude": "-122.264404", "rating": null, "num_reviews": null}, {"location_id": "26931304", "name": "Petit Cafe", "latitude": "37.818909", "longitude": "-122.264805", "rating": null, "num_reviews": null}, {"location_id": "27003455", "name": "Anaire Twin", "latitude": "37.818899", "longitude": "-122.265411", "rating": null, "num_reviews": null}, {"location_id": "23038765", "name": "Layalina Resturant", "latitude": "37.820183", "longitude": "-122.267117", "rating": null, "num_reviews": null}, {"location_id": "26900236", "name": "River Nile Market", "latitude": "37.820223", "longitude": "-122.267164", "rating": null, "num_reviews": null}, {"location_id": "27020786", "name": "Dawson's Stress Reduction", "latitude": "37.818588", "longitude": "-122.265101", "rating": null, "num_reviews": null}, {"location_id": "7276853", "name": "Oasis Food Market", "latitude": "37.819824", "longitude": "-122.267235", "rating": 4.0, "num_reviews": 7}, {"location_id": "33346427", "name": "Sandwicheez Cafe Webster", "latitude": "37.82102", "longitude": "-122.261683", "rating": null, "num_reviews": null}, {"location_id": "16825442", "name": "Chipotle Mexican Grill", "latitude": "37.819109", "longitude": "-122.262531", "rating": 3.0, "num_reviews": 3}, {"location_id": "33346947", "name": "Sandwicheez Cafe Webster", "latitude": "37.821106", "longitude": "-122.261551", "rating": null, "num_reviews": null}, {"location_id": "7786877", "name": "The Sound Room", "latitude": "37.819199", "longitude": "-122.261887", "rating": 4.6, "num_reviews": 14}, {"location_id": "34077377", "name": "Price 4 Charter Buses & Limos Alameda", "latitude": "37.81797", "longitude": "-122.26382", "rating": null, "num_reviews": null}, {"location_id": "5835782", "name": "3000 Broadway", "latitude": "37.81875", "longitude": "-122.26181", "rating": null, "num_reviews": null}, {"location_id": "27057466", "name": "The Yoni Day Spa", "latitude": "37.81746", "longitude": "-122.2642", "rating": null, "num_reviews": null}, {"location_id": "26973199", "name": "Cat Town Cafe", "latitude": "37.817328", "longitude": "-122.263466", "rating": null, "num_reviews": null}, {"location_id": "24914482", "name": "Malai Thai Massage", "latitude": "37.817802", "longitude": "-122.267247", "rating": 5.0, "num_reviews": 1}, {"location_id": "7380607", "name": "Cat Town", "latitude": "37.81713", "longitude": "-122.263458", "rating": 4.7, "num_reviews": 31}, {"location_id": "5011298", "name": "Louisiana Fish and Chips", "latitude": "37.81779", "longitude": "-122.26774", "rating": 2.5, "num_reviews": 2}, {"location_id": "15169509", "name": "Lula", "latitude": "37.817606", "longitude": "-122.267845", "rating": 2.0, "num_reviews": 1}, {"location_id": "26992647", "name": "Grocery Outlet", "latitude": "37.817503", "longitude": "-122.26141", "rating": null, "num_reviews": null}]