[{"location_id": "8610384", "name": "Strawberry Hill", "latitude": "37.768642", "longitude": "-122.475319", "rating": 4.6, "num_reviews": 14}, {"location_id": "14821021", "name": "Golden Gate Park - Chinese Pavilion", "latitude": "37.76737", "longitude": "-122.47716", "rating": null, "num_reviews": null}, {"location_id": "14787608", "name": "Colonial Historic Trees", "latitude": "37.770569", "longitude": "-122.474731", "rating": 3.0, "num_reviews": 2}, {"location_id": "104942", "name": "Blue Heron Boathouse", "latitude": "37.77064", "longitude": "-122.4771", "rating": 4.2, "num_reviews": 120}, {"location_id": "14787586", "name": "Pioneer log cabin", "latitude": "37.77124", "longitude": "-122.47401", "rating": 3.0, "num_reviews": 3}, {"location_id": "25486237", "name": "Loop", "latitude": "37.76516", "longitude": "-122.476952", "rating": null, "num_reviews": null}, {"location_id": "4091729", "name": "Far Fung Places", "latitude": "37.770417", "longitude": "-122.471856", "rating": 4.9, "num_reviews": 115}, {"location_id": "5020792", "name": "Hardly, Strictly Bluegrass", "latitude": "37.7691", "longitude": "-122.48025", "rating": 4.6, "num_reviews": 11}, {"location_id": "533629", "name": "Hing Lung at the Park", "latitude": "37.7651", "longitude": "-122.47763", "rating": 3.0, "num_reviews": 1}, {"location_id": "19663592", "name": "Casa Barajas", "latitude": "37.765238", "longitude": "-122.478178", "rating": 5.0, "num_reviews": 1}, {"location_id": "4729765", "name": "Chug Pub", "latitude": "37.76514", "longitude": "-122.47812", "rating": 4.2, "num_reviews": 9}, {"location_id": "15292280", "name": "Bronze Lion", "latitude": "37.76913", "longitude": "-122.48096", "rating": 3.7, "num_reviews": 3}, {"location_id": "14941150", "name": "Bronze Sundial", "latitude": "37.76913", "longitude": "-122.48096", "rating": 3.5, "num_reviews": 2}, {"location_id": "142415", "name": "Japanese Tea Garden", "latitude": "37.770092", "longitude": "-122.470436", "rating": 4.3, "num_reviews": 3415}, {"location_id": "7798890", "name": "The Hostel Van", "latitude": "37.7646", "longitude": "-122.4786", "rating": null, "num_reviews": null}, {"location_id": "25469191", "name": "Sushi Goemon", "latitude": "37.763894", "longitude": "-122.474423", "rating": null, "num_reviews": null}, {"location_id": "20065489", "name": "B&B Banh Mi & Boba", "latitude": "37.763757", "longitude": "-122.47566", "rating": 4.0, "num_reviews": 1}, {"location_id": "25505592", "name": "Chevron ExtraMile", "latitude": "37.763826", "longitude": "-122.476953", "rating": null, "num_reviews": null}, {"location_id": "1315388", "name": "Izakaya Sozai", "latitude": "37.763847", "longitude": "-122.474121", "rating": 4.3, "num_reviews": 28}, {"location_id": "25285756", "name": "Yoma Cafe", "latitude": "37.764305", "longitude": "-122.472542", "rating": null, "num_reviews": null}]