[{"location_id": "27914973", "name": "Ghirardelli Marketplace", "latitude": "37.805924", "longitude": "-122.423393", "rating": null, "num_reviews": null}, {"location_id": "26731965", "name": "Subpar Miniature Golf Ghirardelli Square", "latitude": "37.805931", "longitude": "-122.423241", "rating": 4.2, "num_reviews": 5}, {"location_id": "4461309", "name": "Bluxome Street Winery", "latitude": "37.806051", "longitude": "-122.423228", "rating": 4.2, "num_reviews": 14}, {"location_id": "4831203", "name": "Vom Fass Store", "latitude": "37.805744", "longitude": "-122.42346", "rating": 4.8, "num_reviews": 16}, {"location_id": "156654", "name": "San Francisco Brewing Company", "latitude": "37.806019", "longitude": "-122.42363", "rating": 3.6, "num_reviews": 58}, {"location_id": "17199213", "name": "Palette Tea House", "latitude": "37.805996", "longitude": "-122.422951", "rating": 4.4, "num_reviews": 108}, {"location_id": "542709", "name": "Ghirardelli Chocolate Experience", "latitude": "37.80595", "longitude": "-122.422935", "rating": 4.2, "num_reviews": 1429}, {"location_id": "4833652", "name": "Von Foss", "latitude": "37.80586", "longitude": "-122.422929", "rating": 4.0, "num_reviews": 1}, {"location_id": "14131632", "name": "San Francisco Brewing Co.", "latitude": "37.805668", "longitude": "-122.423599", "rating": 3.9, "num_reviews": 85}, {"location_id": "17458513", "name": "The Cheese School of San Francisco", "latitude": "37.80585", "longitude": "-122.42292", "rating": 4.6, "num_reviews": 8}, {"location_id": "12391163", "name": "Andrea's Fountain", "latitude": "37.80585", "longitude": "-122.42292", "rating": 3.9, "num_reviews": 12}, {"location_id": "14152713", "name": "E-Bike Tours", "latitude": "37.80585", "longitude": "-122.42292", "rating": 4.7, "num_reviews": 27}, {"location_id": "27460730", "name": "Barrio Ghiradelli Square San Francisco", "latitude": "37.80585", "longitude": "-122.42292", "rating": 4.7, "num_reviews": 3}, {"location_id": "1181369", "name": "elizabethW", "latitude": "37.80585", "longitude": "-122.42292", "rating": 3.8, "num_reviews": 4}, {"location_id": "19115775", "name": "Heritage Place, Ghirardelli Square -Residences", "latitude": "37.80585", "longitude": "-122.42292", "rating": 2.0, "num_reviews": 1}, {"location_id": "20076615", "name": "GamedayVR", "latitude": "37.806221", "longitude": "-122.423149", "rating": 5.0, "num_reviews": 1}, {"location_id": "34052659", "name": "The Pub", "latitude": "37.805614", "longitude": "-122.423059", "rating": null, "num_reviews": null}, {"location_id": "16802053", "name": "Unlimited Biking", "latitude": "37.806274", "longitude": "-122.42313", "rating": 4.2, "num_reviews": 218}, {"location_id": "24091991", "name": "Square Pie Guys", "latitude": "37.806217", "longitude": "-122.422997", "rating": 4.0, "num_reviews": 35}, {"location_id": "1175274", "name": "Fairmont Heritage Place, Ghirardelli Square", "latitude": "37.805534", "longitude": "-122.422676", "rating": 4.7, "num_reviews": 903}]