[{"location_id": "3226666", "name": "Cleveland Lakefront Nature Preserve", "latitude": "41.544348", "longitude": "-81.631967", "rating": 4.1, "num_reviews": 18}, {"location_id": "527278", "name": "Rockefeller Park & Greenhouse", "latitude": "41.53537", "longitude": "-81.62948", "rating": 4.4, "num_reviews": 94}, {"location_id": "23723605", "name": "Immersive Van Gogh", "latitude": "41.531662", "longitude": "-81.639297", "rating": 3.0, "num_reviews": 3}, {"location_id": "8533255", "name": "Cleveland Cultural Gardens", "latitude": "41.53308", "longitude": "-81.63033", "rating": 4.5, "num_reviews": 57}, {"location_id": "27045030", "name": "Polish Cultural Garden", "latitude": "41.532492", "longitude": "-81.628377", "rating": null, "num_reviews": null}, {"location_id": "26995916", "name": "California Market", "latitude": "41.530664", "longitude": "-81.633016", "rating": null, "num_reviews": null}]