[{"location_id": "2645568", "name": "Museum of Tolerance", "latitude": "34.053715", "longitude": "-118.40173", "rating": 4.3, "num_reviews": 173}, {"location_id": "25496544", "name": "PS Food Caf\u00e9", "latitude": "34.053685", "longitude": "-118.40166", "rating": null, "num_reviews": null}, {"location_id": "106382", "name": "Simon Wiesenthal Center", "latitude": "34.053875", "longitude": "-118.401624", "rating": 4.6, "num_reviews": 21}, {"location_id": "33087417", "name": "The Westside Shul", "latitude": "34.053834", "longitude": "-118.401259", "rating": null, "num_reviews": null}, {"location_id": "33089178", "name": "Congregation Mogen David", "latitude": "34.054851", "longitude": "-118.40009", "rating": null, "num_reviews": null}, {"location_id": "12868436", "name": "Skin Care by Andrea", "latitude": "34.05358", "longitude": "-118.40422", "rating": null, "num_reviews": null}, {"location_id": "15023627", "name": "Karafuto Skin Care", "latitude": "34.05358", "longitude": "-118.40422", "rating": null, "num_reviews": null}, {"location_id": "12864263", "name": "Leora Veysey Skin Care", "latitude": "34.05358", "longitude": "-118.40422", "rating": null, "num_reviews": null}, {"location_id": "12872190", "name": "Andrea Jordan Skin Care", "latitude": "34.05358", "longitude": "-118.40422", "rating": null, "num_reviews": null}, {"location_id": "20403511", "name": "Beverly Hills Celebrity Home", "latitude": "34.055894", "longitude": "-118.400268", "rating": null, "num_reviews": null}, {"location_id": "4406450", "name": "Fish Grill", "latitude": "34.054894", "longitude": "-118.398578", "rating": 4.4, "num_reviews": 49}, {"location_id": "2154898", "name": "Cameo Beverly Hills, LXR Hotels & Resorts", "latitude": "34.055485", "longitude": "-118.398926", "rating": 4.9, "num_reviews": 138}, {"location_id": "2553192", "name": "The Restaurant at Mr. C", "latitude": "34.055296", "longitude": "-118.39861", "rating": 4.3, "num_reviews": 116}, {"location_id": "34434701", "name": "Zampo", "latitude": "34.055286", "longitude": "-118.398465", "rating": null, "num_reviews": null}, {"location_id": "12837924", "name": "Mr. C Spa & Beauty", "latitude": "34.05536", "longitude": "-118.39851", "rating": null, "num_reviews": null}, {"location_id": "28162242", "name": "Il Moderno", "latitude": "34.055374", "longitude": "-118.398476", "rating": null, "num_reviews": null}, {"location_id": "537557", "name": "Melanee Thai", "latitude": "34.055004", "longitude": "-118.397237", "rating": 4.2, "num_reviews": 28}, {"location_id": "1155895", "name": "The Coffee Bean & Tea Leaf", "latitude": "34.055449", "longitude": "-118.396744", "rating": 4.2, "num_reviews": 52}, {"location_id": "25540522", "name": "Aarons Kitchen", "latitude": "34.05519", "longitude": "-118.396003", "rating": null, "num_reviews": null}, {"location_id": "84453", "name": "Burton House, Beverly Hills, A Tribute Portfolio Hotel", "latitude": "34.05572", "longitude": "-118.395933", "rating": 4.6, "num_reviews": 339}]