[{"location_id": "14132060", "name": "Giuseppe Garibaldi Statue", "latitude": "40.7309", "longitude": "-73.99751", "rating": 3.8, "num_reviews": 8}, {"location_id": "136354", "name": "Washington Square Park", "latitude": "40.730824", "longitude": "-73.997421", "rating": 4.4, "num_reviews": 3703}, {"location_id": "7374788", "name": "Kornblit Tours", "latitude": "40.730831", "longitude": "-73.99733", "rating": 4.9, "num_reviews": 60}, {"location_id": "8722092", "name": "New York Ghost Tours", "latitude": "40.730824", "longitude": "-73.99733", "rating": 4.6, "num_reviews": 169}, {"location_id": "32893149", "name": "Washington Square Park, New York", "latitude": "40.73089", "longitude": "-73.997293", "rating": 4.3, "num_reviews": 14}, {"location_id": "33367048", "name": "Washington Square Arch", "latitude": "40.73126", "longitude": "-73.997066", "rating": 4.7, "num_reviews": 3}, {"location_id": "27179388", "name": "Epic Walking Tours", "latitude": "40.731193", "longitude": "-73.99677", "rating": null, "num_reviews": 1}, {"location_id": "8653782", "name": "New York For Everyone", "latitude": "40.731422", "longitude": "-73.996971", "rating": 5.0, "num_reviews": 14}, {"location_id": "1198588", "name": "N.Y. Dosas", "latitude": "40.730739", "longitude": "-73.99856", "rating": 4.8, "num_reviews": 42}, {"location_id": "10174353", "name": "The Gym at Judson", "latitude": "40.730229", "longitude": "-73.998259", "rating": 5.0, "num_reviews": 2}, {"location_id": "555526", "name": "Skirball Center for the Performing Arts at NYU", "latitude": "40.730068", "longitude": "-73.997742", "rating": 4.6, "num_reviews": 12}, {"location_id": "27802618", "name": "The Marketplace At Kimmel", "latitude": "40.730014", "longitude": "-73.997731", "rating": null, "num_reviews": null}, {"location_id": "3244662", "name": "Judson Memorial Church", "latitude": "40.730219", "longitude": "-73.998383", "rating": 3.8, "num_reviews": 5}, {"location_id": "1541631", "name": "Famous Fat Dave's Food Tours", "latitude": "40.729992", "longitude": "-73.99781", "rating": 5.0, "num_reviews": 536}, {"location_id": "27179392", "name": "Epic Walking Tours", "latitude": "40.731804", "longitude": "-73.997918", "rating": null, "num_reviews": null}, {"location_id": "24048815", "name": "Mam\u00e1 Vela Charter", "latitude": "40.730327", "longitude": "-73.998647", "rating": 5.0, "num_reviews": 1}, {"location_id": "7383650", "name": "Moments2Memories Tours", "latitude": "40.730797", "longitude": "-73.996269", "rating": 5.0, "num_reviews": 76}, {"location_id": "220065", "name": "No. 7 Washington Square", "latitude": "40.73117", "longitude": "-73.99618", "rating": 3.9, "num_reviews": 12}, {"location_id": "27030177", "name": "Mercer Playground", "latitude": "40.732017", "longitude": "-73.997513", "rating": null, "num_reviews": null}, {"location_id": "26999361", "name": "Trattoria One Fifth", "latitude": "40.731667", "longitude": "-73.996478", "rating": 5.0, "num_reviews": 1}]