[{"location_id": "10850344", "name": "Ina Coolbrith Park", "latitude": "37.79823", "longitude": "-122.41344", "rating": 4.6, "num_reviews": 21}, {"location_id": "17862683", "name": "Just Like Heaven Apartment Building", "latitude": "37.79893", "longitude": "-122.41209", "rating": null, "num_reviews": null}, {"location_id": "219469", "name": "Macondray Lane", "latitude": "37.79869", "longitude": "-122.41559", "rating": 4.3, "num_reviews": 50}, {"location_id": "15675750", "name": "Robert Levy Broadway Tunnel", "latitude": "37.796695", "longitude": "-122.414998", "rating": 3.8, "num_reviews": 5}, {"location_id": "23679434", "name": "Serafina SF", "latitude": "37.79695", "longitude": "-122.415429", "rating": 4.8, "num_reviews": 21}, {"location_id": "33089275", "name": "Nob Hill Yoga", "latitude": "37.796167", "longitude": "-122.413581", "rating": null, "num_reviews": null}, {"location_id": "26102987", "name": "Creation Fine Art Studios", "latitude": "37.79617", "longitude": "-122.41385", "rating": null, "num_reviews": null}, {"location_id": "353893", "name": "Trattoria Contadina", "latitude": "37.80017", "longitude": "-122.412261", "rating": 4.4, "num_reviews": 581}, {"location_id": "28185699", "name": "Salon Picasso", "latitude": "37.799172", "longitude": "-122.410784", "rating": null, "num_reviews": null}, {"location_id": "19663486", "name": "Barrio", "latitude": "37.79948", "longitude": "-122.41085", "rating": 4.8, "num_reviews": 27}, {"location_id": "6588069", "name": "The Boardroom", "latitude": "37.79948", "longitude": "-122.41085", "rating": 4.4, "num_reviews": 16}, {"location_id": "13953675", "name": "AltoVino", "latitude": "37.796214", "longitude": "-122.411651", "rating": 4.5, "num_reviews": 40}, {"location_id": "25349444", "name": "Yomie's Rice X Yogurt - San Francisco", "latitude": "37.797593", "longitude": "-122.41049", "rating": null, "num_reviews": null}, {"location_id": "25525227", "name": "KaiKai Don", "latitude": "37.797561", "longitude": "-122.410495", "rating": null, "num_reviews": null}, {"location_id": "12575925", "name": "Enter The Cafe", "latitude": "37.797588", "longitude": "-122.41047", "rating": 4.0, "num_reviews": 1}, {"location_id": "19788498", "name": "Sweet San Francisco Tours", "latitude": "37.79599", "longitude": "-122.41532", "rating": null, "num_reviews": null}, {"location_id": "5830799", "name": "Northstar Cafe", "latitude": "37.7992", "longitude": "-122.41046", "rating": 4.7, "num_reviews": 10}, {"location_id": "26918374", "name": "Hilda and Jesse", "latitude": "37.800041", "longitude": "-122.411044", "rating": 3.1, "num_reviews": 22}, {"location_id": "4517105", "name": "The North Star Cafe", "latitude": "37.799222", "longitude": "-122.410394", "rating": 4.4, "num_reviews": 13}, {"location_id": "493545", "name": "Kam Po Kitchen", "latitude": "37.79718", "longitude": "-122.410409", "rating": 4.0, "num_reviews": 29}]