[{"location_id": "104946", "name": "Cartoon Art Museum", "latitude": "37.806416", "longitude": "-122.421722", "rating": 3.9, "num_reviews": 94}, {"location_id": "7708915", "name": "Dennis Rae Fine Art", "latitude": "37.80622", "longitude": "-122.42167", "rating": 4.8, "num_reviews": 4}, {"location_id": "7708909", "name": "Franklin Bowles Gallery", "latitude": "37.8065", "longitude": "-122.4215", "rating": 4.9, "num_reviews": 8}, {"location_id": "27914974", "name": "San Francisco Efoil", "latitude": "37.806452", "longitude": "-122.421449", "rating": null, "num_reviews": null}, {"location_id": "25969775", "name": "San Francisco eFoil", "latitude": "37.80633", "longitude": "-122.42142", "rating": 5.0, "num_reviews": 4}, {"location_id": "14432085", "name": "San Francisco Electric Scooter Rentals", "latitude": "37.80626", "longitude": "-122.42134", "rating": 5.0, "num_reviews": 10}, {"location_id": "21166678", "name": "San Francisco Private Group Jeep Tours", "latitude": "37.80626", "longitude": "-122.42134", "rating": 5.0, "num_reviews": 177}, {"location_id": "25306461", "name": "Umbrella Alley San Francisco", "latitude": "37.806324", "longitude": "-122.42129", "rating": 3.0, "num_reviews": 9}, {"location_id": "23794128", "name": "San Francisco Electric Tour Company", "latitude": "37.806324", "longitude": "-122.421287", "rating": 4.7, "num_reviews": 7}, {"location_id": "5426220", "name": "San Francisco Segway Tours", "latitude": "37.806492", "longitude": "-122.421188", "rating": 4.9, "num_reviews": 231}, {"location_id": "3840985", "name": "Ghirardelli Chocolate To Go", "latitude": "37.806283", "longitude": "-122.422489", "rating": 4.3, "num_reviews": 189}, {"location_id": "3973938", "name": "McCormick & Kuleto's Seafood & Steaks", "latitude": "37.806293", "longitude": "-122.422554", "rating": 4.0, "num_reviews": 1579}, {"location_id": "3511988", "name": "The Cheese School of San Francisco", "latitude": "37.805983", "longitude": "-122.422394", "rating": 4.5, "num_reviews": 45}, {"location_id": "578357", "name": "Electric Tour Company", "latitude": "37.806465", "longitude": "-122.42099", "rating": 4.9, "num_reviews": 4555}, {"location_id": "13117770", "name": "SF Excursions", "latitude": "37.806694", "longitude": "-122.42104", "rating": 5.0, "num_reviews": 915}, {"location_id": "26707182", "name": "The Original Ghirardelli Chocolate & Ice Cream Shop", "latitude": "37.805665", "longitude": "-122.42225", "rating": 3.9, "num_reviews": 198}, {"location_id": "156322", "name": "Buena Vista", "latitude": "37.806835", "longitude": "-122.420938", "rating": 4.2, "num_reviews": 224}, {"location_id": "531722", "name": "Buena Vista Cafe", "latitude": "37.806534", "longitude": "-122.420719", "rating": 4.3, "num_reviews": 2703}, {"location_id": "373592", "name": "Grandeho's Kamekyo", "latitude": "37.806136", "longitude": "-122.420714", "rating": 4.3, "num_reviews": 154}, {"location_id": "24091991", "name": "Square Pie Guys", "latitude": "37.806217", "longitude": "-122.422997", "rating": 4.0, "num_reviews": 35}]