[{"location_id": "29037186", "name": "The Last House On Mulholland", "latitude": "34.131287", "longitude": "-118.320541", "rating": 3.7, "num_reviews": 3}, {"location_id": "14863778", "name": "Hollywood Hikes", "latitude": "34.130211", "longitude": "-118.318932", "rating": 5.0, "num_reviews": 1874}, {"location_id": "2547373", "name": "Glitterati Tours", "latitude": "34.129797", "longitude": "-118.322661", "rating": 5.0, "num_reviews": 316}, {"location_id": "144152", "name": "Hollywood Sign", "latitude": "34.134113", "longitude": "-118.32154", "rating": 4.0, "num_reviews": 7762}, {"location_id": "13151715", "name": "Hollywood City Tours", "latitude": "34.134117", "longitude": "-118.321548", "rating": 4.8, "num_reviews": 4885}, {"location_id": "156741", "name": "Sunset Ranch Hollywood", "latitude": "34.128029", "longitude": "-118.316032", "rating": 4.5, "num_reviews": 646}, {"location_id": "2189209", "name": "Lake Hollywood Park", "latitude": "34.126949", "longitude": "-118.326103", "rating": 4.3, "num_reviews": 430}, {"location_id": "28649658", "name": "Garden Of Oz", "latitude": "34.12465", "longitude": "-118.321933", "rating": null, "num_reviews": null}, {"location_id": "12001694", "name": "Guia Turismo Los Angeles", "latitude": "34.125517", "longitude": "-118.326176", "rating": 5.0, "num_reviews": 139}, {"location_id": "560748", "name": "Bronson Caves", "latitude": "34.121326", "longitude": "-118.314339", "rating": 4.3, "num_reviews": 81}, {"location_id": "3181790", "name": "Beachwood Cafe Hollywood", "latitude": "34.120078", "longitude": "-118.32125", "rating": 4.4, "num_reviews": 163}, {"location_id": "25541295", "name": "Amaya Mexican Kitchen", "latitude": "34.119936", "longitude": "-118.321401", "rating": null, "num_reviews": null}, {"location_id": "7245980", "name": "Hollywoodland Antiques & Fine Time Pieces", "latitude": "34.119906", "longitude": "-118.32122", "rating": 5.0, "num_reviews": 1}, {"location_id": "8028598", "name": "Hollyridge Trail", "latitude": "34.120281", "longitude": "-118.316141", "rating": 4.8, "num_reviews": 11}]