[{"location_id": "28172136", "name": "Canarsie Playground", "latitude": "40.627036", "longitude": "-73.899639", "rating": null, "num_reviews": null}, {"location_id": "4835868", "name": "BossaNova", "latitude": "40.62221", "longitude": "-73.90377", "rating": null, "num_reviews": null}, {"location_id": "10413910", "name": "Strusser's Limousine Service", "latitude": "40.62235", "longitude": "-73.90425", "rating": 4.8, "num_reviews": 86}, {"location_id": "5047135", "name": "Il Posto Restaurant", "latitude": "40.621484", "longitude": "-73.905143", "rating": 4.4, "num_reviews": 18}, {"location_id": "27081520", "name": "McGuire Fields", "latitude": "40.619825", "longitude": "-73.901499", "rating": null, "num_reviews": null}, {"location_id": "28172184", "name": "Canarsie Park", "latitude": "40.627766", "longitude": "-73.895081", "rating": null, "num_reviews": null}, {"location_id": "4678006", "name": "Wilkens II Deli", "latitude": "40.61999", "longitude": "-73.90695", "rating": 5.0, "num_reviews": 2}, {"location_id": "27750934", "name": "Bergen Beach Cafe", "latitude": "40.619932", "longitude": "-73.906976", "rating": null, "num_reviews": null}, {"location_id": "33107682", "name": "Chabad Center For Russian Speakers", "latitude": "40.619101", "longitude": "-73.906399", "rating": null, "num_reviews": null}, {"location_id": "27345785", "name": "Highly Grounded Cafe", "latitude": "40.619518", "longitude": "-73.907488", "rating": null, "num_reviews": null}, {"location_id": "28172118", "name": "Bergen Beach Playground", "latitude": "40.622629", "longitude": "-73.910113", "rating": null, "num_reviews": null}, {"location_id": "19778017", "name": "At the Water's Edge in Canarsie", "latitude": "40.629248", "longitude": "-73.891571", "rating": null, "num_reviews": null}, {"location_id": "33028502", "name": "Temple Sholom Of Flatbush", "latitude": "40.618668", "longitude": "-73.909781", "rating": null, "num_reviews": null}, {"location_id": "34392108", "name": "Joy's Country Home", "latitude": "40.632282", "longitude": "-73.908737", "rating": null, "num_reviews": null}, {"location_id": "4734885", "name": "Dunkin'", "latitude": "40.617259", "longitude": "-73.909704", "rating": 5.0, "num_reviews": 1}, {"location_id": "25277833", "name": "Mis Taquitos", "latitude": "40.616985", "longitude": "-73.909683", "rating": 4.7, "num_reviews": 3}, {"location_id": "941942", "name": "La Villa Pizzeria", "latitude": "40.616944", "longitude": "-73.909722", "rating": 4.2, "num_reviews": 96}, {"location_id": "25553325", "name": "Ichimoku Ramen", "latitude": "40.61692", "longitude": "-73.909858", "rating": null, "num_reviews": null}, {"location_id": "23857657", "name": "Hebrew Educational Society", "latitude": "40.63265", "longitude": "-73.89106", "rating": null, "num_reviews": null}, {"location_id": "34032988", "name": "Ave n", "latitude": "40.63422", "longitude": "-73.89379", "rating": null, "num_reviews": null}]