[{"location_id": "3243404", "name": "Silver Fox Fishing and Tours", "latitude": "37.808189", "longitude": "-122.417077", "rating": 4.9, "num_reviews": 13}, {"location_id": "4108139", "name": "Bass Tub Sportfishing", "latitude": "37.80809", "longitude": "-122.41782", "rating": 5.0, "num_reviews": 26}, {"location_id": "6439826", "name": "Lovely Martha Sportfishing", "latitude": "37.80809", "longitude": "-122.41782", "rating": 4.9, "num_reviews": 19}, {"location_id": "4111787", "name": "Starbucks Anchorage", "latitude": "37.807735", "longitude": "-122.417489", "rating": 3.8, "num_reviews": 118}, {"location_id": "19119968", "name": "Zea Gallery", "latitude": "37.808182", "longitude": "-122.416832", "rating": null, "num_reviews": 1}, {"location_id": "25149930", "name": "The Holiday Shoppe", "latitude": "37.807983", "longitude": "-122.416718", "rating": null, "num_reviews": null}, {"location_id": "6434371", "name": "Wild Wave Sport Fishing Charters", "latitude": "37.808246", "longitude": "-122.416643", "rating": 5.0, "num_reviews": 43}, {"location_id": "15121825", "name": "Nautilus Excursions", "latitude": "37.808254", "longitude": "-122.416618", "rating": 5.0, "num_reviews": 1}, {"location_id": "17530575", "name": "Supreme Crab", "latitude": "37.808019", "longitude": "-122.416592", "rating": 3.6, "num_reviews": 40}, {"location_id": "4472389", "name": "Flash Sport Fishing", "latitude": "37.80816", "longitude": "-122.41658", "rating": 5.0, "num_reviews": 12}, {"location_id": "10136254", "name": "The Baked Bear", "latitude": "37.807419", "longitude": "-122.417191", "rating": 4.7, "num_reviews": 245}, {"location_id": "28205430", "name": "IT\u2019SUGAR", "latitude": "37.807499", "longitude": "-122.417841", "rating": null, "num_reviews": null}, {"location_id": "28015950", "name": "Hertz", "latitude": "37.807499", "longitude": "-122.417841", "rating": 2.0, "num_reviews": 4}, {"location_id": "4137011", "name": "Flash Sport Fishing Charters of San Francisco", "latitude": "37.80827", "longitude": "-122.416461", "rating": 5.0, "num_reviews": 11}, {"location_id": "15191907", "name": "Anchorage Square", "latitude": "37.80747", "longitude": "-122.41782", "rating": 3.2, "num_reviews": 6}, {"location_id": "532298", "name": "Babushka", "latitude": "37.80747", "longitude": "-122.41782", "rating": 3.0, "num_reviews": 1}, {"location_id": "156697", "name": "Tarantino's", "latitude": "37.808349", "longitude": "-122.416301", "rating": 3.3, "num_reviews": 54}, {"location_id": "2371705", "name": "The Codmother Fish & Chips", "latitude": "37.80727", "longitude": "-122.417076", "rating": 4.5, "num_reviews": 1311}, {"location_id": "1118073", "name": "City Segway Tours San Francisco", "latitude": "37.807442", "longitude": "-122.41813", "rating": 4.9, "num_reviews": 2101}, {"location_id": "1007177", "name": "In-N-Out Burger", "latitude": "37.80783", "longitude": "-122.418469", "rating": 3.9, "num_reviews": 2309}]