[{"location_id": "6522453", "name": "Edgewater Park", "latitude": "41.490356", "longitude": "-81.735474", "rating": 4.6, "num_reviews": 296}, {"location_id": "27019299", "name": "Johnny Kilbane Park", "latitude": "41.487306", "longitude": "-81.736221", "rating": 5.0, "num_reviews": 1}, {"location_id": "26988656", "name": "Terra Bistro", "latitude": "41.487208", "longitude": "-81.736564", "rating": null, "num_reviews": null}, {"location_id": "12964576", "name": "Terrestrial Brewing Company", "latitude": "41.48711", "longitude": "-81.73671", "rating": 4.4, "num_reviews": 28}, {"location_id": "5842392", "name": "Battery Park Wine Bar", "latitude": "41.48691", "longitude": "-81.7361", "rating": 5.0, "num_reviews": 1}, {"location_id": "16826242", "name": "Good Company", "latitude": "41.48647", "longitude": "-81.737694", "rating": 4.3, "num_reviews": 11}, {"location_id": "17765541", "name": "Edgewater Beach", "latitude": "41.486771", "longitude": "-81.740662", "rating": 3.9, "num_reviews": 11}, {"location_id": "20258874", "name": "All Saints Public House", "latitude": "41.485847", "longitude": "-81.737312", "rating": 4.2, "num_reviews": 10}, {"location_id": "28168319", "name": "Dawn Tekler Studio", "latitude": "41.484198", "longitude": "-81.739305", "rating": null, "num_reviews": null}, {"location_id": "27035554", "name": "Kenneth Paul Lesko Gallery", "latitude": "41.484089", "longitude": "-81.739194", "rating": null, "num_reviews": null}, {"location_id": "8444902", "name": "ARTneo", "latitude": "41.484085", "longitude": "-81.739227", "rating": null, "num_reviews": null}, {"location_id": "27081469", "name": "Jamison Art Conservation", "latitude": "41.484085", "longitude": "-81.739227", "rating": null, "num_reviews": null}, {"location_id": "10084726", "name": "Blank Canvas Theatre", "latitude": "41.48403", "longitude": "-81.73938", "rating": 4.8, "num_reviews": 6}, {"location_id": "1050716", "name": "Stone Mad Irish Pub", "latitude": "41.48664", "longitude": "-81.730491", "rating": 4.1, "num_reviews": 127}, {"location_id": "27063755", "name": "HEDGE Gallery", "latitude": "41.48385", "longitude": "-81.73865", "rating": null, "num_reviews": null}, {"location_id": "6376072", "name": "78th Street Studios", "latitude": "41.48385", "longitude": "-81.73865", "rating": 4.6, "num_reviews": 7}, {"location_id": "13323233", "name": "Il Rione", "latitude": "41.486704", "longitude": "-81.729939", "rating": 4.9, "num_reviews": 28}, {"location_id": "137398", "name": "Edgewater Marina", "latitude": "41.49256", "longitude": "-81.72847", "rating": 3.6, "num_reviews": 18}, {"location_id": "4398255", "name": "Subway", "latitude": "41.483755", "longitude": "-81.732561", "rating": null, "num_reviews": null}, {"location_id": "7809832", "name": "Local West", "latitude": "41.482861", "longitude": "-81.735573", "rating": 4.6, "num_reviews": 35}]