[{"location_id": "2630831", "name": "Rodney Lough Jr. San Francisco Gallery", "latitude": "37.8084", "longitude": "-122.41326", "rating": 4.4, "num_reviews": 25}, {"location_id": "16787527", "name": "Mango Crazy", "latitude": "37.808475", "longitude": "-122.413091", "rating": 4.8, "num_reviews": 4}, {"location_id": "28932203", "name": "Starbucks", "latitude": "37.808418", "longitude": "-122.412849", "rating": null, "num_reviews": null}, {"location_id": "25513396", "name": "F&B Cloud Kitchen and Bar", "latitude": "37.808407", "longitude": "-122.413586", "rating": null, "num_reviews": null}, {"location_id": "27169391", "name": "SkyStar Wheel Fisherman\u2019s Wharf", "latitude": "37.808666", "longitude": "-122.413521", "rating": 4.5, "num_reviews": 23}, {"location_id": "13843883", "name": "7-Eleven", "latitude": "37.80805", "longitude": "-122.41324", "rating": 3.8, "num_reviews": 17}, {"location_id": "17389497", "name": "Museum of 3D Illusions", "latitude": "37.80805", "longitude": "-122.41324", "rating": 3.5, "num_reviews": 27}, {"location_id": "18895560", "name": "Wetzel's Pretzels", "latitude": "37.80805", "longitude": "-122.41326", "rating": 4.7, "num_reviews": 3}, {"location_id": "25509648", "name": "CVS", "latitude": "37.808462", "longitude": "-122.412668", "rating": null, "num_reviews": null}, {"location_id": "25507032", "name": "Chocolate Cake Spot", "latitude": "37.808035", "longitude": "-122.413682", "rating": null, "num_reviews": null}, {"location_id": "25374767", "name": "SFDS Tours", "latitude": "37.808577", "longitude": "-122.412528", "rating": 5.0, "num_reviews": 3}, {"location_id": "81222", "name": "Hotel Zephyr San Francisco", "latitude": "37.807766", "longitude": "-122.413223", "rating": 4.1, "num_reviews": 4037}, {"location_id": "21130662", "name": "Krispy Krunchy Chicken", "latitude": "37.808155", "longitude": "-122.414006", "rating": 5.0, "num_reviews": 2}, {"location_id": "1064696", "name": "IHOP", "latitude": "37.807853", "longitude": "-122.412645", "rating": 4.0, "num_reviews": 801}, {"location_id": "25578494", "name": "Pardon My Cheesesteak", "latitude": "37.807854", "longitude": "-122.412643", "rating": null, "num_reviews": null}, {"location_id": "1487921", "name": "Tower Tours - San Francisco Sightseeing Specialist", "latitude": "37.807705", "longitude": "-122.41378", "rating": 4.2, "num_reviews": 1261}, {"location_id": "23791576", "name": "Royal Collection", "latitude": "37.808181", "longitude": "-122.4143", "rating": null, "num_reviews": null}, {"location_id": "81375", "name": "Hotel Riu Plaza Fisherman\u2019s Wharf", "latitude": "37.807423", "longitude": "-122.41349", "rating": 4.3, "num_reviews": 2369}, {"location_id": "81466", "name": "The Wharf Inn", "latitude": "37.807745", "longitude": "-122.414265", "rating": 3.5, "num_reviews": 1100}, {"location_id": "4717815", "name": "San Francisco Chocolate Store", "latitude": "37.808419", "longitude": "-122.414594", "rating": 4.4, "num_reviews": 129}]