[{"location_id": "104675", "name": "Golden Gate Bridge", "latitude": "37.820026", "longitude": "-122.478592", "rating": 4.7, "num_reviews": 49967}, {"location_id": "26306405", "name": "Universal Studio Productions", "latitude": "37.8183", "longitude": "-122.47846", "rating": null, "num_reviews": null}, {"location_id": "3218297", "name": "Golden Gate Bridge Tours", "latitude": "37.8183", "longitude": "-122.47846", "rating": 4.8, "num_reviews": 71}, {"location_id": "17723621", "name": "Crissy Field Marsh", "latitude": "37.8183", "longitude": "-122.47846", "rating": 4.0, "num_reviews": 2}, {"location_id": "2440554", "name": "Hendrik Point", "latitude": "37.827533", "longitude": "-122.481738", "rating": 4.7, "num_reviews": 35}, {"location_id": "106745", "name": "San Francisco Bay", "latitude": "37.827598", "longitude": "-122.481594", "rating": 4.7, "num_reviews": 7360}, {"location_id": "143136", "name": "Fort Point National Historic Site", "latitude": "37.81065", "longitude": "-122.477074", "rating": 4.5, "num_reviews": 1108}, {"location_id": "104643", "name": "The Coastal Trail", "latitude": "37.808636", "longitude": "-122.47575", "rating": 4.8, "num_reviews": 71}, {"location_id": "8263808", "name": "San Francisco Crabbing Crew", "latitude": "37.808643", "longitude": "-122.471527", "rating": 4.8, "num_reviews": 24}]