[{"location_id": "12491294", "name": "St. Ignatius Church", "latitude": "37.776334", "longitude": "-122.452918", "rating": 4.5, "num_reviews": 11}, {"location_id": "25507279", "name": "Cindy's Market", "latitude": "37.77345", "longitude": "-122.450826", "rating": null, "num_reviews": null}, {"location_id": "25475428", "name": "The Sandwich Slut", "latitude": "37.77345", "longitude": "-122.450826", "rating": null, "num_reviews": null}, {"location_id": "12457890", "name": "Manitas Cafe & Deli", "latitude": "37.77356", "longitude": "-122.45069", "rating": 4.8, "num_reviews": 8}, {"location_id": "5096664", "name": "Sacred Grounds Coffee House", "latitude": "37.773248", "longitude": "-122.450845", "rating": 4.0, "num_reviews": 4}, {"location_id": "368838", "name": "Panhandle Pizza", "latitude": "37.77323", "longitude": "-122.45066", "rating": null, "num_reviews": null}, {"location_id": "32817070", "name": "The Hungry Spot", "latitude": "37.773192", "longitude": "-122.450649", "rating": 5.0, "num_reviews": 1}, {"location_id": "12215513", "name": "Hayes Pizza", "latitude": "37.773224", "longitude": "-122.450546", "rating": 4.2, "num_reviews": 6}, {"location_id": "14803824", "name": "McLaren lodge", "latitude": "37.772647", "longitude": "-122.454414", "rating": 3.7, "num_reviews": 6}, {"location_id": "32900017", "name": "University Of San Francisco", "latitude": "37.776544", "longitude": "-122.450306", "rating": null, "num_reviews": null}, {"location_id": "1228220", "name": "Jefferson Airplane House", "latitude": "37.77475", "longitude": "-122.45657", "rating": 4.0, "num_reviews": 7}, {"location_id": "14787609", "name": "Dahlia Garden", "latitude": "37.7733", "longitude": "-122.45612", "rating": 4.7, "num_reviews": 3}, {"location_id": "14787610", "name": "Fuchsia Dell", "latitude": "37.7733", "longitude": "-122.45612", "rating": 4.0, "num_reviews": 1}, {"location_id": "14787598", "name": "Camellia Garden", "latitude": "37.7733", "longitude": "-122.45612", "rating": 4.0, "num_reviews": 1}, {"location_id": "20154483", "name": "Fulton Startup House", "latitude": "37.77473", "longitude": "-122.45672", "rating": null, "num_reviews": null}, {"location_id": "4493419", "name": "Parkwide Bike Rentals & Tours", "latitude": "37.77726", "longitude": "-122.45001", "rating": 4.2, "num_reviews": 660}, {"location_id": "15713243", "name": "War Memorial Gym", "latitude": "37.776875", "longitude": "-122.449511", "rating": 4.0, "num_reviews": 1}, {"location_id": "27009148", "name": "Museum Management Consultants, Inc.", "latitude": "37.777963", "longitude": "-122.455996", "rating": null, "num_reviews": null}, {"location_id": "25504964", "name": "Central Park Liquors", "latitude": "37.773838", "longitude": "-122.447885", "rating": null, "num_reviews": null}, {"location_id": "26940216", "name": "Karma Cafe", "latitude": "37.773626", "longitude": "-122.447848", "rating": 5.0, "num_reviews": 1}]