[{"location_id": "27069139", "name": "Art Object Gallery", "latitude": "37.348842", "longitude": "-121.893683", "rating": null, "num_reviews": null}, {"location_id": "927045", "name": "Kumako Ramen Japantown", "latitude": "37.349236", "longitude": "-121.894097", "rating": 4.2, "num_reviews": 35}, {"location_id": "847230", "name": "Kaita Restaurant", "latitude": "37.34931", "longitude": "-121.894074", "rating": 3.7, "num_reviews": 15}, {"location_id": "5112974", "name": "Roy's Station Coffee and Tea", "latitude": "37.34899", "longitude": "-121.89469", "rating": 4.6, "num_reviews": 30}, {"location_id": "5960749", "name": "Shuei-Do Manju Shop", "latitude": "37.34935", "longitude": "-121.89401", "rating": 5.0, "num_reviews": 12}, {"location_id": "911576", "name": "Hukilau", "latitude": "37.349153", "longitude": "-121.893611", "rating": 4.3, "num_reviews": 47}, {"location_id": "5042336", "name": "Shuei Do Manju Shop", "latitude": "37.349369", "longitude": "-121.894035", "rating": 4.8, "num_reviews": 12}, {"location_id": "586175", "name": "Gombei Japanese Restaurant", "latitude": "37.348901", "longitude": "-121.894835", "rating": 4.1, "num_reviews": 74}, {"location_id": "20966242", "name": "Nijiya Market", "latitude": "37.34908", "longitude": "-121.89348", "rating": 4.5, "num_reviews": 2}, {"location_id": "18980014", "name": "Aloha Fresh", "latitude": "37.34943", "longitude": "-121.89385", "rating": 5.0, "num_reviews": 1}, {"location_id": "26985284", "name": "Pau Hana Shave Ice", "latitude": "37.349255", "longitude": "-121.893467", "rating": null, "num_reviews": null}, {"location_id": "21199903", "name": "Shabu Shack", "latitude": "37.348761", "longitude": "-121.895102", "rating": null, "num_reviews": null}, {"location_id": "468128", "name": "Kazoo Restaurant", "latitude": "37.349312", "longitude": "-121.893304", "rating": 4.2, "num_reviews": 59}, {"location_id": "10756040", "name": "Symbology Escape Rooms", "latitude": "37.34845", "longitude": "-121.895", "rating": 5.0, "num_reviews": 1}, {"location_id": "15168248", "name": "JT Express", "latitude": "37.34845", "longitude": "-121.895", "rating": 5.0, "num_reviews": 2}, {"location_id": "633454", "name": "Omogari", "latitude": "37.348416", "longitude": "-121.895097", "rating": 4.3, "num_reviews": 33}, {"location_id": "4930207", "name": "7Bamboo", "latitude": "37.348437", "longitude": "-121.895148", "rating": 3.8, "num_reviews": 5}, {"location_id": "486634", "name": "Minato Japanese Restaurant", "latitude": "37.349781", "longitude": "-121.89373", "rating": 4.3, "num_reviews": 52}, {"location_id": "16640365", "name": "Spread", "latitude": "37.349815", "longitude": "-121.89386", "rating": null, "num_reviews": null}, {"location_id": "7760554", "name": "Spread", "latitude": "37.349815", "longitude": "-121.89386", "rating": 4.5, "num_reviews": 17}]