[{"location_id": "27481469", "name": "Lands Of Origin", "latitude": "47.609389", "longitude": "-122.341458", "rating": 5.0, "num_reviews": 6}, {"location_id": "12287096", "name": "Sotto Voce", "latitude": "47.60939", "longitude": "-122.34146", "rating": 5.0, "num_reviews": 3}, {"location_id": "1502013", "name": "Cinnamon Works", "latitude": "47.609362", "longitude": "-122.341505", "rating": 4.5, "num_reviews": 142}, {"location_id": "492532", "name": "Sister's European Snacks", "latitude": "47.609468", "longitude": "-122.341305", "rating": 3.4, "num_reviews": 72}, {"location_id": "2243552", "name": "City Fish Co", "latitude": "47.609287", "longitude": "-122.341503", "rating": 4.4, "num_reviews": 32}, {"location_id": "944989", "name": "Pike Place Chowder - Pike Place Market", "latitude": "47.609337", "longitude": "-122.34121", "rating": 4.5, "num_reviews": 4392}, {"location_id": "4479045", "name": "Jasmine Thai Restaurant", "latitude": "47.609478", "longitude": "-122.341213", "rating": 4.0, "num_reviews": 20}, {"location_id": "26951941", "name": "Juice Emporium", "latitude": "47.609242", "longitude": "-122.3415", "rating": null, "num_reviews": null}, {"location_id": "432698", "name": "Copacabana Cafe", "latitude": "47.609233", "longitude": "-122.341325", "rating": 3.5, "num_reviews": 160}, {"location_id": "26879897", "name": "Copacabana Pike Place", "latitude": "47.609241", "longitude": "-122.341264", "rating": null, "num_reviews": null}, {"location_id": "479900", "name": "Mee Sum Pastry", "latitude": "47.609214", "longitude": "-122.341342", "rating": 4.3, "num_reviews": 228}, {"location_id": "23628452", "name": "The Dressing Room: Bistro and Bar By Can Can", "latitude": "47.609383", "longitude": "-122.34113", "rating": 3.9, "num_reviews": 7}, {"location_id": "15226711", "name": "Pizza and Pasta Bar", "latitude": "47.609392", "longitude": "-122.341127", "rating": 3.6, "num_reviews": 39}, {"location_id": "603535", "name": "Made in Washington", "latitude": "47.609366", "longitude": "-122.3411", "rating": 4.4, "num_reviews": 49}, {"location_id": "3490498", "name": "Mr. D's Greek Delicacies", "latitude": "47.609206", "longitude": "-122.341253", "rating": 4.4, "num_reviews": 50}, {"location_id": "4756791", "name": "Rachel's Ginger Beer", "latitude": "47.609619", "longitude": "-122.341422", "rating": 4.5, "num_reviews": 406}, {"location_id": "4664360", "name": "Farvahar Persian Cafe", "latitude": "47.609533", "longitude": "-122.341139", "rating": 4.3, "num_reviews": 29}, {"location_id": "432809", "name": "Truffle Queen", "latitude": "47.609183", "longitude": "-122.341238", "rating": 4.7, "num_reviews": 85}, {"location_id": "1024814", "name": "Can Can Culinary Cabaret", "latitude": "47.609573", "longitude": "-122.341148", "rating": 4.5, "num_reviews": 194}, {"location_id": "28932378", "name": "Bonnie B's Peppers", "latitude": "47.609551", "longitude": "-122.341081", "rating": 5.0, "num_reviews": 2}]