[{"location_id": "142853", "name": "Venice Beach Boardwalk", "latitude": "33.990925", "longitude": "-118.477448", "rating": 3.9, "num_reviews": 3107}, {"location_id": "10755968", "name": "Rent Me", "latitude": "33.9906", "longitude": "-118.4766", "rating": 5.0, "num_reviews": 2}, {"location_id": "26882754", "name": "The Cold Spot", "latitude": "33.991185", "longitude": "-118.47713", "rating": null, "num_reviews": null}, {"location_id": "1217114", "name": "Venice Breeze Suites", "latitude": "33.990086", "longitude": "-118.476166", "rating": 4.2, "num_reviews": 554}, {"location_id": "12836790", "name": "Float Lab", "latitude": "33.99124", "longitude": "-118.47708", "rating": null, "num_reviews": null}, {"location_id": "14175664", "name": "Pink Elephant Espresso", "latitude": "33.99124", "longitude": "-118.47708", "rating": 5.0, "num_reviews": 1}, {"location_id": "23943998", "name": "Stay Open Venice Beach.", "latitude": "33.990894", "longitude": "-118.476547", "rating": 4.0, "num_reviews": 16}, {"location_id": "15631797", "name": "Breeze", "latitude": "33.99045", "longitude": "-118.4761", "rating": null, "num_reviews": null}, {"location_id": "15666072", "name": "Venice Beach mural", "latitude": "33.98938", "longitude": "-118.47552", "rating": 3.4, "num_reviews": 5}, {"location_id": "25473822", "name": "The Gluten Free Pizza Place", "latitude": "33.988928", "longitude": "-118.475304", "rating": null, "num_reviews": null}, {"location_id": "26990903", "name": "Pizza Pizza", "latitude": "33.988928", "longitude": "-118.475304", "rating": null, "num_reviews": null}, {"location_id": "4477808", "name": "Fruit Gallery", "latitude": "33.98853", "longitude": "-118.47504", "rating": 4.5, "num_reviews": 10}, {"location_id": "27920758", "name": "Groundwork Coffee Co.", "latitude": "33.988654", "longitude": "-118.474974", "rating": null, "num_reviews": null}, {"location_id": "6224363", "name": "Jay's Cycles", "latitude": "33.988702", "longitude": "-118.474952", "rating": 5.0, "num_reviews": 3}, {"location_id": "207443", "name": "Patrick's Venice Rollerworks", "latitude": "33.988702", "longitude": "-118.474952", "rating": null, "num_reviews": null}, {"location_id": "4800315", "name": "Groundwork Coffee Company", "latitude": "33.98858", "longitude": "-118.47497", "rating": 4.6, "num_reviews": 35}, {"location_id": "3649546", "name": "Venice Beach Ice Cream and Gelato", "latitude": "33.992729", "longitude": "-118.478721", "rating": 4.7, "num_reviews": 9}, {"location_id": "15296871", "name": "Venice Beach Waldorf", "latitude": "33.98863", "longitude": "-118.4749", "rating": null, "num_reviews": null}, {"location_id": "23316938", "name": "Venice V Hotel", "latitude": "33.988678", "longitude": "-118.47488", "rating": 4.6, "num_reviews": 193}, {"location_id": "5107075", "name": "El Huarique Peruvian Cuisine", "latitude": "33.988442", "longitude": "-118.474934", "rating": 4.3, "num_reviews": 44}]