[{"location_id": "3652530", "name": "Leaping Lemur Cafe", "latitude": "37.733217", "longitude": "-122.503253", "rating": 2.9, "num_reviews": 15}, {"location_id": "127854", "name": "San Francisco Zoo", "latitude": "37.733177", "longitude": "-122.505646", "rating": 3.9, "num_reviews": 970}, {"location_id": "4440522", "name": "George's Zoo Liquor Deli", "latitude": "37.735585", "longitude": "-122.501677", "rating": 4.5, "num_reviews": 24}, {"location_id": "537737", "name": "Pasquale's Pizza", "latitude": "37.735687", "longitude": "-122.502767", "rating": 4.2, "num_reviews": 25}, {"location_id": "2192574", "name": "Java Beach Cafe", "latitude": "37.735702", "longitude": "-122.502929", "rating": 4.2, "num_reviews": 74}, {"location_id": "80963", "name": "Mirage Inn & Suites", "latitude": "37.735771", "longitude": "-122.50239", "rating": 3.3, "num_reviews": 638}, {"location_id": "33040456", "name": "Java Beach At The Zoo", "latitude": "37.735882", "longitude": "-122.502808", "rating": 2.0, "num_reviews": 1}, {"location_id": "291227", "name": "Ocean Park Motel", "latitude": "37.736375", "longitude": "-122.504023", "rating": 4.3, "num_reviews": 291}, {"location_id": "3618863", "name": "Three Hills and a Tunnel Urban Hiking Tour", "latitude": "37.73144", "longitude": "-122.49618", "rating": null, "num_reviews": null}, {"location_id": "27082625", "name": "South Sunset Playground", "latitude": "37.73744", "longitude": "-122.498501", "rating": null, "num_reviews": null}, {"location_id": "21164486", "name": "White Bark Vista Point", "latitude": "37.729774", "longitude": "-122.496627", "rating": 3.0, "num_reviews": 1}, {"location_id": "614190", "name": "Old Mandarin Islamic", "latitude": "37.738413", "longitude": "-122.50071", "rating": 4.0, "num_reviews": 44}, {"location_id": "27794247", "name": "Sm Sunset Supermarket", "latitude": "37.738171", "longitude": "-122.497482", "rating": null, "num_reviews": null}, {"location_id": "17659968", "name": "San Francisco Tour Agency", "latitude": "37.74083", "longitude": "-122.50381", "rating": 3.2, "num_reviews": 5}, {"location_id": "4823204", "name": "Yuyu Sushi", "latitude": "37.73333", "longitude": "-122.491302", "rating": 4.4, "num_reviews": 8}, {"location_id": "24476094", "name": "Congregation Am Tikvah", "latitude": "37.741569", "longitude": "-122.5043", "rating": null, "num_reviews": null}, {"location_id": "28172645", "name": "Ross Dress For Less", "latitude": "37.732475", "longitude": "-122.491065", "rating": null, "num_reviews": null}, {"location_id": "479275", "name": "Brothers Pizza", "latitude": "37.741558", "longitude": "-122.505143", "rating": 3.9, "num_reviews": 16}, {"location_id": "6509336", "name": "The Riptide", "latitude": "37.74157", "longitude": "-122.50532", "rating": 4.1, "num_reviews": 7}, {"location_id": "26961389", "name": "The Riptide", "latitude": "37.741581", "longitude": "-122.505349", "rating": null, "num_reviews": null}]