[{"location_id": "26264018", "name": "The Unlikely Florist", "latitude": "33.993678", "longitude": "-118.474724", "rating": null, "num_reviews": null}, {"location_id": "19398826", "name": "Sanchos Tacos", "latitude": "33.993621", "longitude": "-118.476784", "rating": null, "num_reviews": null}, {"location_id": "15809420", "name": "Public Art \"You Are Not Forgotten\"", "latitude": "33.99334", "longitude": "-118.47675", "rating": 4.0, "num_reviews": 1}, {"location_id": "10439920", "name": "Barrique Venice", "latitude": "33.993164", "longitude": "-118.474684", "rating": 4.5, "num_reviews": 75}, {"location_id": "12127902", "name": "On Demand Car Services", "latitude": "33.99416", "longitude": "-118.47708", "rating": 5.0, "num_reviews": 5}, {"location_id": "25348331", "name": "Venice Haven", "latitude": "33.993637", "longitude": "-118.477332", "rating": null, "num_reviews": null}, {"location_id": "13941693", "name": "Gold\u2019s Gym", "latitude": "33.995331", "longitude": "-118.475372", "rating": 3.3, "num_reviews": 28}, {"location_id": "16666238", "name": "Venice Beach Vacation Condos", "latitude": "33.994", "longitude": "-118.47765", "rating": 1.8, "num_reviews": 8}, {"location_id": "7255119", "name": "Gjusta", "latitude": "33.995316", "longitude": "-118.474567", "rating": 4.4, "num_reviews": 345}, {"location_id": "28183094", "name": "Arcane Space", "latitude": "33.995346", "longitude": "-118.4745", "rating": null, "num_reviews": null}, {"location_id": "21121302", "name": "Tacos Por Favor", "latitude": "33.99321", "longitude": "-118.47339", "rating": null, "num_reviews": null}, {"location_id": "21410701", "name": "Tripper Beach Hostel - Venice Beach", "latitude": "33.99324", "longitude": "-118.47806", "rating": null, "num_reviews": null}, {"location_id": "21182405", "name": "Tripper Electric Beach Suites And Pods", "latitude": "33.993264", "longitude": "-118.478085", "rating": null, "num_reviews": null}, {"location_id": "15657656", "name": "Twentieth Church Of Christ, Scientist", "latitude": "33.991926", "longitude": "-118.474309", "rating": 3.5, "num_reviews": 2}, {"location_id": "26985858", "name": "Little Lunch Coffee", "latitude": "33.991391", "longitude": "-118.475432", "rating": 4.5, "num_reviews": 2}, {"location_id": "33013884", "name": "V365 Vape House", "latitude": "33.99313", "longitude": "-118.47852", "rating": 5.0, "num_reviews": 1}, {"location_id": "28643887", "name": "Peruvian Bowl", "latitude": "33.993117", "longitude": "-118.478524", "rating": 4.6, "num_reviews": 5}, {"location_id": "25163678", "name": "Surf N Turf Tacos Venice Beach", "latitude": "33.993098", "longitude": "-118.47852", "rating": 5.0, "num_reviews": 1}, {"location_id": "20056682", "name": "Five Star Hostel", "latitude": "33.99532", "longitude": "-118.47808", "rating": null, "num_reviews": null}, {"location_id": "8310224", "name": "Ellison Suites", "latitude": "33.9938", "longitude": "-118.47884", "rating": 4.3, "num_reviews": 1023}]