[{"location_id": "10132496", "name": "Blue Star Donuts", "latitude": "33.991365", "longitude": "-118.469333", "rating": 4.5, "num_reviews": 94}, {"location_id": "34430216", "name": "Chamberlain Coffee", "latitude": "33.99131", "longitude": "-118.46928", "rating": null, "num_reviews": null}, {"location_id": "14216338", "name": "Sweetfin Poke Venice Beach", "latitude": "33.991316", "longitude": "-118.469202", "rating": 4.5, "num_reviews": 2}, {"location_id": "33054539", "name": "Take Me Out Los Angeles", "latitude": "33.991467", "longitude": "-118.46905", "rating": null, "num_reviews": null}, {"location_id": "10277953", "name": "The Butcher's Daughter", "latitude": "33.991658", "longitude": "-118.469208", "rating": 4.3, "num_reviews": 516}, {"location_id": "4914373", "name": "Kreation Kafe", "latitude": "33.991349", "longitude": "-118.469101", "rating": 4.2, "num_reviews": 148}, {"location_id": "27061714", "name": "Den Mother Wellness", "latitude": "33.991601", "longitude": "-118.469096", "rating": 2.0, "num_reviews": 1}, {"location_id": "25495869", "name": "Plant Shop", "latitude": "33.991276", "longitude": "-118.469231", "rating": null, "num_reviews": null}, {"location_id": "9582553", "name": "Cuyana", "latitude": "33.99126", "longitude": "-118.46933", "rating": 4.8, "num_reviews": 5}, {"location_id": "25180365", "name": "Loco Coco", "latitude": "33.991212", "longitude": "-118.469128", "rating": 5.0, "num_reviews": 1}, {"location_id": "34273024", "name": "Joe and the juice", "latitude": "33.991208", "longitude": "-118.469101", "rating": null, "num_reviews": null}, {"location_id": "293308", "name": "Abbot Kinney Boulevard", "latitude": "33.991375", "longitude": "-118.46891", "rating": 4.4, "num_reviews": 418}, {"location_id": "15677412", "name": "\"So far so good\" mural", "latitude": "33.99138", "longitude": "-118.46981", "rating": 3.0, "num_reviews": 1}, {"location_id": "32881784", "name": "All'Antico Vinaio", "latitude": "33.99182", "longitude": "-118.469763", "rating": 5.0, "num_reviews": 6}, {"location_id": "25510245", "name": "De Buena Planta", "latitude": "33.991448", "longitude": "-118.469962", "rating": null, "num_reviews": null}, {"location_id": "10230735", "name": "Greenleaf Kitchen & Cocktails", "latitude": "33.99146", "longitude": "-118.46831", "rating": 4.0, "num_reviews": 83}, {"location_id": "25452980", "name": "BLOSSOM VIETNAMESE RESTAURANT", "latitude": "33.992466", "longitude": "-118.469627", "rating": 5.0, "num_reviews": 1}, {"location_id": "15828971", "name": "Venice Street Art Tours", "latitude": "33.99173", "longitude": "-118.47052", "rating": 5.0, "num_reviews": 23}, {"location_id": "30848487", "name": "RVR", "latitude": "33.991348", "longitude": "-118.467941", "rating": null, "num_reviews": 1}, {"location_id": "4682225", "name": "Rooster Fish", "latitude": "33.99092", "longitude": "-118.46802", "rating": 4.2, "num_reviews": 12}]