[{"location_id": "12374007", "name": "Bank of Canton", "latitude": "37.79507", "longitude": "-122.40624", "rating": 4.3, "num_reviews": 4}, {"location_id": "15149708", "name": "Maggie\u2019s Cafe", "latitude": "37.794998", "longitude": "-122.406264", "rating": 2.7, "num_reviews": 7}, {"location_id": "1531738", "name": "Grant Place Restaurant", "latitude": "37.79511", "longitude": "-122.406168", "rating": 3.2, "num_reviews": 132}, {"location_id": "531674", "name": "Bow Hon", "latitude": "37.794966", "longitude": "-122.406277", "rating": 3.5, "num_reviews": 83}, {"location_id": "6403385", "name": "Buddha Lounge", "latitude": "37.795189", "longitude": "-122.406465", "rating": 4.1, "num_reviews": 21}, {"location_id": "2301700", "name": "Vital Tea Leaf", "latitude": "37.795185", "longitude": "-122.406521", "rating": 4.8, "num_reviews": 106}, {"location_id": "23591225", "name": "Empress By Boon", "latitude": "37.794843", "longitude": "-122.406353", "rating": 4.2, "num_reviews": 20}, {"location_id": "524598", "name": "J&M A-1 Cafe Restaurant", "latitude": "37.794943", "longitude": "-122.405997", "rating": 3.3, "num_reviews": 20}, {"location_id": "17695024", "name": "Magical Ice Cream", "latitude": "37.79535", "longitude": "-122.40632", "rating": 4.6, "num_reviews": 8}, {"location_id": "25481947", "name": "Yu'sCafe", "latitude": "37.795022", "longitude": "-122.405915", "rating": null, "num_reviews": null}, {"location_id": "26943341", "name": "Yu's Cafe", "latitude": "37.795022", "longitude": "-122.405915", "rating": null, "num_reviews": null}, {"location_id": "26941494", "name": "Char Ming Sun Market", "latitude": "37.794795", "longitude": "-122.406122", "rating": null, "num_reviews": null}, {"location_id": "26913947", "name": "Heart of Shanghai", "latitude": "37.794985", "longitude": "-122.406635", "rating": null, "num_reviews": null}, {"location_id": "360163", "name": "City View Restaurant", "latitude": "37.794895", "longitude": "-122.405945", "rating": 4.3, "num_reviews": 571}, {"location_id": "532631", "name": "Chinatown Restaurant", "latitude": "37.795294", "longitude": "-122.405957", "rating": 2.7, "num_reviews": 470}, {"location_id": "531885", "name": "Li Po Cocktail Lounge", "latitude": "37.795385", "longitude": "-122.406496", "rating": 4.0, "num_reviews": 88}, {"location_id": "14215305", "name": "Vital Tea Leaf", "latitude": "37.79527", "longitude": "-122.40668", "rating": 4.5, "num_reviews": 8}, {"location_id": "26934285", "name": "Beijing 49er", "latitude": "37.79539", "longitude": "-122.40598", "rating": 2.5, "num_reviews": 2}, {"location_id": "27840681", "name": "Sweetheart Cafe", "latitude": "37.795349", "longitude": "-122.406616", "rating": null, "num_reviews": null}, {"location_id": "677218", "name": "Red Blossom Tea Company", "latitude": "37.794682", "longitude": "-122.406471", "rating": 4.8, "num_reviews": 35}]