[{"location_id": "12902874", "name": "Hector's Cafe & Diner", "latitude": "40.74052", "longitude": "-74.008105", "rating": 4.3, "num_reviews": 52}, {"location_id": "14140741", "name": "The Standard SeaShack", "latitude": "40.74061", "longitude": "-74.00791", "rating": 1.0, "num_reviews": 1}, {"location_id": "8830941", "name": "Zigzag at NYC", "latitude": "40.74061", "longitude": "-74.00791", "rating": 5.0, "num_reviews": 1}, {"location_id": "34085122", "name": "Top of the Standard", "latitude": "40.740611", "longitude": "-74.007908", "rating": null, "num_reviews": null}, {"location_id": "1849029", "name": "The Standard Biergarten", "latitude": "40.740484", "longitude": "-74.007895", "rating": 4.2, "num_reviews": 456}, {"location_id": "1553124", "name": "The Standard Grill", "latitude": "40.740688", "longitude": "-74.007881", "rating": 4.2, "num_reviews": 2076}, {"location_id": "12265709", "name": "The Wild Son", "latitude": "40.740579", "longitude": "-74.008469", "rating": 4.7, "num_reviews": 60}, {"location_id": "23458734", "name": "Best Burger", "latitude": "40.740752", "longitude": "-74.008401", "rating": 5.0, "num_reviews": 6}, {"location_id": "2433995", "name": "BOOM", "latitude": "40.740871", "longitude": "-74.008148", "rating": 4.3, "num_reviews": 778}, {"location_id": "1218720", "name": "The Standard, High Line", "latitude": "40.740814", "longitude": "-74.007866", "rating": 4.4, "num_reviews": 6926}, {"location_id": "4682641", "name": "Le Bain", "latitude": "40.740898", "longitude": "-74.00817", "rating": 3.6, "num_reviews": 428}, {"location_id": "423616", "name": "Hector's Restaurant", "latitude": "40.740293", "longitude": "-74.008289", "rating": 4.1, "num_reviews": 84}, {"location_id": "2022394", "name": "Brass Monkey", "latitude": "40.740763", "longitude": "-74.008483", "rating": 4.1, "num_reviews": 246}, {"location_id": "27131864", "name": "Pok\u00e9mon Installation", "latitude": "40.740942", "longitude": "-74.008116", "rating": null, "num_reviews": null}, {"location_id": "26301534", "name": "Aubi & Ramsa", "latitude": "40.740319", "longitude": "-74.007646", "rating": 4.8, "num_reviews": 11}, {"location_id": "10373083", "name": "Wanderlust", "latitude": "40.74014", "longitude": "-74.00817", "rating": null, "num_reviews": null}, {"location_id": "34092228", "name": "K'ab Juun", "latitude": "40.740111", "longitude": "-74.007752", "rating": 5.0, "num_reviews": 1}, {"location_id": "13239538", "name": "Samsung 837", "latitude": "40.74062", "longitude": "-74.00734", "rating": 3.5, "num_reviews": 21}, {"location_id": "17380924", "name": "Mother Teresa and Gandhi Mural", "latitude": "40.741012", "longitude": "-74.008699", "rating": 4.6, "num_reviews": 5}, {"location_id": "594342", "name": "Valbella", "latitude": "40.740807", "longitude": "-74.007264", "rating": 4.4, "num_reviews": 246}]