[{"location_id": "560748", "name": "Bronson Caves", "latitude": "34.121326", "longitude": "-118.314339", "rating": 4.3, "num_reviews": 81}, {"location_id": "8028598", "name": "Hollyridge Trail", "latitude": "34.120281", "longitude": "-118.316141", "rating": 4.8, "num_reviews": 11}, {"location_id": "28582634", "name": "Hollywood Hills Homestay", "latitude": "34.119583", "longitude": "-118.316116", "rating": null, "num_reviews": null}, {"location_id": "21181950", "name": "Hollywood Hills Bed and Breakfast", "latitude": "34.118274", "longitude": "-118.316098", "rating": 1.0, "num_reviews": 1}, {"location_id": "34420839", "name": "CL0SSEdd", "latitude": "34.116299", "longitude": "-118.316208", "rating": null, "num_reviews": null}, {"location_id": "26326660", "name": "Firebreak Trail to Griffith Observatory", "latitude": "34.119332", "longitude": "-118.307899", "rating": null, "num_reviews": null}, {"location_id": "3181790", "name": "Beachwood Cafe Hollywood", "latitude": "34.120078", "longitude": "-118.32125", "rating": 4.4, "num_reviews": 163}, {"location_id": "7245980", "name": "Hollywoodland Antiques & Fine Time Pieces", "latitude": "34.119906", "longitude": "-118.32122", "rating": 5.0, "num_reviews": 1}, {"location_id": "25541295", "name": "Amaya Mexican Kitchen", "latitude": "34.119936", "longitude": "-118.321401", "rating": null, "num_reviews": null}, {"location_id": "156741", "name": "Sunset Ranch Hollywood", "latitude": "34.128029", "longitude": "-118.316032", "rating": 4.5, "num_reviews": 646}, {"location_id": "28649658", "name": "Garden Of Oz", "latitude": "34.12465", "longitude": "-118.321933", "rating": null, "num_reviews": null}, {"location_id": "1390617", "name": "The Beachwood Canyon Retreat", "latitude": "34.117359", "longitude": "-118.32187", "rating": 4.8, "num_reviews": 4}, {"location_id": "1812310", "name": "The Trails Cafe", "latitude": "34.113963", "longitude": "-118.307687", "rating": 4.5, "num_reviews": 96}, {"location_id": "14863778", "name": "Hollywood Hikes", "latitude": "34.130211", "longitude": "-118.318932", "rating": 5.0, "num_reviews": 1876}, {"location_id": "12001694", "name": "Guia Turismo Los Angeles", "latitude": "34.125517", "longitude": "-118.326176", "rating": 5.0, "num_reviews": 139}, {"location_id": "1820168", "name": "The Cafe at the End of the Universe", "latitude": "34.118485", "longitude": "-118.300804", "rating": 3.2, "num_reviews": 89}, {"location_id": "2547373", "name": "Glitterati Tours", "latitude": "34.129797", "longitude": "-118.322661", "rating": 5.0, "num_reviews": 316}, {"location_id": "29037186", "name": "The Last House On Mulholland", "latitude": "34.131287", "longitude": "-118.320541", "rating": 3.7, "num_reviews": 3}, {"location_id": "2189209", "name": "Lake Hollywood Park", "latitude": "34.126949", "longitude": "-118.326103", "rating": 4.3, "num_reviews": 430}, {"location_id": "17542777", "name": "Marvelous Los Angeles", "latitude": "34.1105", "longitude": "-118.32174", "rating": null, "num_reviews": null}]