[{"location_id": "1315352", "name": "Live Sushi Bar", "latitude": "37.764602", "longitude": "-122.403712", "rating": 4.4, "num_reviews": 32}, {"location_id": "8674652", "name": "Bleu Ribbon Kitchen - Le Cordon Bleu San Francisco Campus", "latitude": "37.7654", "longitude": "-122.40279", "rating": 5.0, "num_reviews": 1}, {"location_id": "24106039", "name": "Next Level Clucker San Francisco", "latitude": "37.764633", "longitude": "-122.402863", "rating": null, "num_reviews": null}, {"location_id": "19663311", "name": "Next Level Burger Potrero Hill", "latitude": "37.764652", "longitude": "-122.402802", "rating": 4.0, "num_reviews": 1}, {"location_id": "2549188", "name": "San Francisco Center for the Book", "latitude": "37.76536", "longitude": "-122.40233", "rating": 4.8, "num_reviews": 6}, {"location_id": "1069354", "name": "Whole Foods Market", "latitude": "37.764408", "longitude": "-122.402687", "rating": 4.2, "num_reviews": 16}, {"location_id": "360143", "name": "Dos Pinas", "latitude": "37.766329", "longitude": "-122.40257", "rating": 3.8, "num_reviews": 16}, {"location_id": "19749466", "name": "Torraku Ramen", "latitude": "37.765778", "longitude": "-122.402084", "rating": 3.5, "num_reviews": 2}, {"location_id": "28161928", "name": "Cafe Da Fonk!", "latitude": "37.765777", "longitude": "-122.402083", "rating": null, "num_reviews": null}, {"location_id": "156571", "name": "Metronome Ballroom", "latitude": "37.76502", "longitude": "-122.40199", "rating": null, "num_reviews": null}, {"location_id": "12862270", "name": "Taqueria", "latitude": "37.76411", "longitude": "-122.40266", "rating": null, "num_reviews": null}, {"location_id": "21206100", "name": "El Sur", "latitude": "37.76573", "longitude": "-122.40202", "rating": 5.0, "num_reviews": 1}, {"location_id": "2157499", "name": "Nature Trip - Day Tours", "latitude": "37.76359", "longitude": "-122.40413", "rating": 5.0, "num_reviews": 15}, {"location_id": "25495527", "name": "Pimp My Pasta", "latitude": "37.765989", "longitude": "-122.401782", "rating": null, "num_reviews": null}, {"location_id": "25490695", "name": "My Good Pie", "latitude": "37.765989", "longitude": "-122.401782", "rating": null, "num_reviews": null}, {"location_id": "25501030", "name": "Seoul Fried Chicken", "latitude": "37.765989", "longitude": "-122.401782", "rating": null, "num_reviews": null}, {"location_id": "25542422", "name": "Avo Avo", "latitude": "37.765989", "longitude": "-122.401782", "rating": null, "num_reviews": null}, {"location_id": "4835491", "name": "Two Sons' Sandwiches", "latitude": "37.76447", "longitude": "-122.406303", "rating": 4.3, "num_reviews": 7}, {"location_id": "14965752", "name": "Antique & Art Exchange", "latitude": "37.767409", "longitude": "-122.404394", "rating": null, "num_reviews": null}, {"location_id": "532301", "name": "Bonhams & Butterfield", "latitude": "37.76652", "longitude": "-122.40613", "rating": 3.5, "num_reviews": 2}]