[{"location_id": "16814569", "name": "Fort Miley", "latitude": "37.782121", "longitude": "-122.507826", "rating": 4.0, "num_reviews": 2}, {"location_id": "7212042", "name": "USS San Francisco Memorial", "latitude": "37.783262", "longitude": "-122.510206", "rating": 4.2, "num_reviews": 18}, {"location_id": "27423639", "name": "Majestic Limo", "latitude": "37.780139", "longitude": "-122.508097", "rating": 5.0, "num_reviews": 1}, {"location_id": "16755527", "name": "Labyrinth at Land's End", "latitude": "37.788003", "longitude": "-122.505879", "rating": 4.3, "num_reviews": 10}, {"location_id": "537459", "name": "Legion of Honor Cafe", "latitude": "37.784529", "longitude": "-122.501153", "rating": 3.9, "num_reviews": 134}, {"location_id": "8147610", "name": "Suzume No Oyado", "latitude": "37.779346", "longitude": "-122.50672", "rating": null, "num_reviews": null}, {"location_id": "32988362", "name": "Seal Rock Inn Restaurant", "latitude": "37.779678", "longitude": "-122.509201", "rating": 2.5, "num_reviews": 2}, {"location_id": "81367", "name": "Seal Rock Inn", "latitude": "37.779694", "longitude": "-122.509376", "rating": 4.8, "num_reviews": 61}, {"location_id": "156333", "name": "Legion of Honor", "latitude": "37.784466", "longitude": "-122.500839", "rating": 4.6, "num_reviews": 2097}, {"location_id": "16755513", "name": "Mile Rock Beach", "latitude": "37.78045", "longitude": "-122.51092", "rating": 4.7, "num_reviews": 3}, {"location_id": "8287620", "name": "Black Cars Transportation", "latitude": "37.77887", "longitude": "-122.50586", "rating": 4.6, "num_reviews": 11}, {"location_id": "13953758", "name": "Caf\u00e9 du Mus\u00e9", "latitude": "37.78486", "longitude": "-122.5003", "rating": 5.0, "num_reviews": 3}, {"location_id": "117409", "name": "Lands End", "latitude": "37.785919", "longitude": "-122.500336", "rating": 4.7, "num_reviews": 2887}, {"location_id": "28165905", "name": "Golden Gate National Parks Conservancy", "latitude": "37.779614", "longitude": "-122.511557", "rating": null, "num_reviews": null}, {"location_id": "3242904", "name": "Sutro Baths", "latitude": "37.780277", "longitude": "-122.51393", "rating": 4.4, "num_reviews": 443}, {"location_id": "3267601", "name": "Sutro Heights Park", "latitude": "37.77803", "longitude": "-122.51129", "rating": 4.6, "num_reviews": 36}, {"location_id": "26993675", "name": "Oceanview Market & Deli", "latitude": "37.779183", "longitude": "-122.499861", "rating": null, "num_reviews": null}, {"location_id": "9820127", "name": "Holocaust Memorial at California Palace of the Legion of Hono", "latitude": "37.78323", "longitude": "-122.49761", "rating": 4.5, "num_reviews": 17}, {"location_id": "267246", "name": "Ocean Beach Bed and Breakfast", "latitude": "37.777", "longitude": "-122.50305", "rating": 4.7, "num_reviews": 37}, {"location_id": "16755471", "name": "Point Lobos", "latitude": "37.77841", "longitude": "-122.51393", "rating": 4.1, "num_reviews": 7}]