[{"location_id": "32806019", "name": "Twin Peaks", "latitude": "37.752987", "longitude": "-122.447413", "rating": null, "num_reviews": null}, {"location_id": "105363", "name": "Twin Peaks", "latitude": "37.753399", "longitude": "-122.448166", "rating": 4.6, "num_reviews": 6449}, {"location_id": "17548374", "name": "Native Moto Adventures", "latitude": "37.75371", "longitude": "-122.44328", "rating": 5.0, "num_reviews": 15}, {"location_id": "19512839", "name": "Go City | San Francisco", "latitude": "37.748092", "longitude": "-122.44369", "rating": 4.0, "num_reviews": 65}, {"location_id": "274660", "name": "Sutro Tower", "latitude": "37.755221", "longitude": "-122.452762", "rating": 3.6, "num_reviews": 18}, {"location_id": "28180121", "name": "Noe Valley Courts", "latitude": "37.751133", "longitude": "-122.439037", "rating": null, "num_reviews": null}, {"location_id": "4306593", "name": "Mission Food Tour -Day Tour", "latitude": "37.7581", "longitude": "-122.44439", "rating": 4.7, "num_reviews": 30}, {"location_id": "27087456", "name": "Franklin Point", "latitude": "37.756751", "longitude": "-122.441356", "rating": 5.0, "num_reviews": 1}, {"location_id": "537850", "name": "Rin's Thai", "latitude": "37.750887", "longitude": "-122.438618", "rating": 4.2, "num_reviews": 36}, {"location_id": "15224750", "name": "California Republic Tour Co.", "latitude": "37.74887", "longitude": "-122.43906", "rating": null, "num_reviews": null}, {"location_id": "27857717", "name": "Philz Coffee - Noe Valley", "latitude": "37.751182", "longitude": "-122.438382", "rating": null, "num_reviews": null}, {"location_id": "265131", "name": "Tank Hill", "latitude": "37.75902", "longitude": "-122.44846", "rating": 4.4, "num_reviews": 14}, {"location_id": "368819", "name": "Firefly Restaurant", "latitude": "37.751192", "longitude": "-122.438238", "rating": 4.4, "num_reviews": 202}, {"location_id": "4110904", "name": "Starbucks Portola Dr", "latitude": "37.744843", "longitude": "-122.452405", "rating": 4.4, "num_reviews": 12}, {"location_id": "26944463", "name": "Mollie Stone's Market", "latitude": "37.744768", "longitude": "-122.452362", "rating": null, "num_reviews": null}, {"location_id": "1802237", "name": "Creighton's", "latitude": "37.744673", "longitude": "-122.452633", "rating": 3.5, "num_reviews": 2}, {"location_id": "27064993", "name": "Al's Park", "latitude": "37.759575", "longitude": "-122.445467", "rating": null, "num_reviews": null}, {"location_id": "27017907", "name": "Douglass Playground", "latitude": "37.747354", "longitude": "-122.438866", "rating": null, "num_reviews": null}, {"location_id": "15032273", "name": "Neighbor's Corner", "latitude": "37.75559", "longitude": "-122.43865", "rating": 4.0, "num_reviews": 1}, {"location_id": "265130", "name": "Kite Hill Open Space", "latitude": "37.758283", "longitude": "-122.441567", "rating": 4.5, "num_reviews": 2}]