[{"location_id": "4231042", "name": "Deli Board", "latitude": "37.777583", "longitude": "-122.407059", "rating": 4.8, "num_reviews": 25}, {"location_id": "368784", "name": "Extreme Pizza", "latitude": "37.777386", "longitude": "-122.407066", "rating": 4.1, "num_reviews": 34}, {"location_id": "10801923", "name": "Victoria Manalo Draves Park", "latitude": "37.777092", "longitude": "-122.406074", "rating": null, "num_reviews": null}, {"location_id": "10664867", "name": "Pura Night Club", "latitude": "37.778096", "longitude": "-122.40576", "rating": 4.0, "num_reviews": 1}, {"location_id": "156700", "name": "Ten15 Folsom", "latitude": "37.778053", "longitude": "-122.4057", "rating": 3.5, "num_reviews": 4}, {"location_id": "30940463", "name": "Club 1015 Folsom", "latitude": "37.778008", "longitude": "-122.405626", "rating": null, "num_reviews": null}, {"location_id": "25505549", "name": "Chevron ExtraMile", "latitude": "37.777549", "longitude": "-122.405026", "rating": null, "num_reviews": null}, {"location_id": "26913016", "name": "Telescope Coffee", "latitude": "37.7781", "longitude": "-122.404845", "rating": null, "num_reviews": null}, {"location_id": "4466838", "name": "El Norteno Tacos", "latitude": "37.778893", "longitude": "-122.407387", "rating": 5.0, "num_reviews": 1}, {"location_id": "14922892", "name": "Signature San Francisco", "latitude": "37.777401", "longitude": "-122.408265", "rating": 4.0, "num_reviews": 122}, {"location_id": "5964810", "name": "Europa Hostel", "latitude": "37.77915", "longitude": "-122.40682", "rating": 2.0, "num_reviews": 77}, {"location_id": "3468708", "name": "Sightglass Coffee", "latitude": "37.777036", "longitude": "-122.408454", "rating": 4.5, "num_reviews": 176}, {"location_id": "23479771", "name": "Limonnana", "latitude": "37.77944", "longitude": "-122.40701", "rating": 5.0, "num_reviews": 1}, {"location_id": "81246", "name": "City Center Inn & Suites - San Francisco", "latitude": "37.77729", "longitude": "-122.408725", "rating": 2.0, "num_reviews": 276}, {"location_id": "16704881", "name": "The Box SF", "latitude": "37.77839", "longitude": "-122.4086", "rating": 5.0, "num_reviews": 2}, {"location_id": "21144694", "name": "Bini's Kitchen", "latitude": "37.779497", "longitude": "-122.407169", "rating": null, "num_reviews": null}, {"location_id": "156375", "name": "Endup", "latitude": "37.777312", "longitude": "-122.403745", "rating": 2.3, "num_reviews": 6}, {"location_id": "28183357", "name": "First Amendment Inc", "latitude": "37.779643", "longitude": "-122.407416", "rating": null, "num_reviews": null}, {"location_id": "26711879", "name": "Dragon Horse", "latitude": "37.779759", "longitude": "-122.405781", "rating": 4.0, "num_reviews": 1}, {"location_id": "25477318", "name": "Trademark Sports Bar", "latitude": "37.77618", "longitude": "-122.408352", "rating": null, "num_reviews": null}]