[{"location_id": "3181311", "name": "Louis Valentino, Jr. Park and Pier", "latitude": "40.678408", "longitude": "-74.018141", "rating": 4.6, "num_reviews": 13}, {"location_id": "1599956", "name": "Steve's Authentic Key Lime Pies", "latitude": "40.677776", "longitude": "-74.017967", "rating": 4.5, "num_reviews": 101}, {"location_id": "23521125", "name": "Hoek Pizza", "latitude": "40.677957", "longitude": "-74.016862", "rating": 4.1, "num_reviews": 8}, {"location_id": "28183761", "name": "Strong Rope Brewery Red Hook", "latitude": "40.677211", "longitude": "-74.018697", "rating": 5.0, "num_reviews": 2}, {"location_id": "3591539", "name": "Fatty's", "latitude": "40.67818", "longitude": "-74.016", "rating": null, "num_reviews": null}, {"location_id": "27048182", "name": "The Red Hook Winery", "latitude": "40.676648", "longitude": "-74.018834", "rating": 5.0, "num_reviews": 1}, {"location_id": "3922543", "name": "The Red Hook Winery", "latitude": "40.676674", "longitude": "-74.019142", "rating": 4.6, "num_reviews": 55}, {"location_id": "4456210", "name": "Botanica", "latitude": "40.677294", "longitude": "-74.015478", "rating": 3.5, "num_reviews": 4}, {"location_id": "8777509", "name": "Widow Jane Distillery", "latitude": "40.677357", "longitude": "-74.015388", "rating": 3.7, "num_reviews": 10}, {"location_id": "4833180", "name": "Cacao Prieto", "latitude": "40.677269", "longitude": "-74.015183", "rating": 4.0, "num_reviews": 21}, {"location_id": "3476141", "name": "Liberty Warehouse", "latitude": "40.675977", "longitude": "-74.016939", "rating": 4.7, "num_reviews": 27}, {"location_id": "4796379", "name": "Sunny's Bar", "latitude": "40.67568", "longitude": "-74.01689", "rating": 4.7, "num_reviews": 35}, {"location_id": "1006843", "name": "Sunny's", "latitude": "40.67568", "longitude": "-74.01689", "rating": 3.0, "num_reviews": 2}, {"location_id": "32997849", "name": "Tivoli", "latitude": "40.677314", "longitude": "-74.014128", "rating": null, "num_reviews": null}, {"location_id": "309720", "name": "Waterfront Museum", "latitude": "40.675236", "longitude": "-74.018333", "rating": 4.7, "num_reviews": 7}, {"location_id": "25525478", "name": "keg & Lantern Brewery", "latitude": "40.675726", "longitude": "-74.015805", "rating": null, "num_reviews": null}, {"location_id": "27011124", "name": "Keg & Lantern Brewing", "latitude": "40.675675", "longitude": "-74.01586", "rating": null, "num_reviews": null}, {"location_id": "3224573", "name": "Brooklyn Crab", "latitude": "40.67536", "longitude": "-74.016606", "rating": 4.1, "num_reviews": 295}, {"location_id": "11893386", "name": "Dry Dock Wine & Spirits", "latitude": "40.67572", "longitude": "-74.015", "rating": 3.5, "num_reviews": 4}, {"location_id": "21204791", "name": "Somtum Der", "latitude": "40.677094", "longitude": "-74.013522", "rating": 4.7, "num_reviews": 3}]