[{"location_id": "20084136", "name": "El Ni\u00f1o's Pizza", "latitude": "40.649162", "longitude": "-73.958458", "rating": null, "num_reviews": null}, {"location_id": "15256230", "name": "McDonald's", "latitude": "40.648748", "longitude": "-73.958026", "rating": null, "num_reviews": null}, {"location_id": "27035499", "name": "Simple Eyebrow", "latitude": "40.648793", "longitude": "-73.958156", "rating": null, "num_reviews": null}, {"location_id": "25458772", "name": "TenderFix by Noah Schnapp", "latitude": "40.65023", "longitude": "-73.95697", "rating": null, "num_reviews": null}, {"location_id": "34187328", "name": "Wendy's", "latitude": "40.649236", "longitude": "-73.958662", "rating": null, "num_reviews": null}, {"location_id": "19677810", "name": "IHOP", "latitude": "40.65033", "longitude": "-73.95695", "rating": null, "num_reviews": null}, {"location_id": "34300167", "name": "Tropical Smoothie Cafe", "latitude": "40.648747", "longitude": "-73.958647", "rating": null, "num_reviews": null}, {"location_id": "32964001", "name": "Adobo Mexican Grill", "latitude": "40.650571", "longitude": "-73.957961", "rating": null, "num_reviews": null}, {"location_id": "26896352", "name": "Kfc", "latitude": "40.648488", "longitude": "-73.958427", "rating": null, "num_reviews": null}, {"location_id": "12673944", "name": "Serenity Garden Massage & Spa", "latitude": "40.64846", "longitude": "-73.95841", "rating": null, "num_reviews": null}, {"location_id": "33667355", "name": "Steiny B's Smashburgers", "latitude": "40.648503", "longitude": "-73.95859", "rating": null, "num_reviews": null}, {"location_id": "25187730", "name": "Wingstop", "latitude": "40.648423", "longitude": "-73.958477", "rating": null, "num_reviews": null}, {"location_id": "34128012", "name": "Sleep Inn", "latitude": "40.650715", "longitude": "-73.95742", "rating": null, "num_reviews": null}, {"location_id": "15169662", "name": "Mandeville Bistro", "latitude": "40.648446", "longitude": "-73.958564", "rating": 4.5, "num_reviews": 2}, {"location_id": "27874900", "name": "Natural Blend", "latitude": "40.650697", "longitude": "-73.957083", "rating": null, "num_reviews": null}, {"location_id": "19678092", "name": "Lotus Vegetarian", "latitude": "40.650718", "longitude": "-73.957164", "rating": 5.0, "num_reviews": 1}, {"location_id": "27875190", "name": "Cj Cafe Flatbush", "latitude": "40.650807", "longitude": "-73.958562", "rating": null, "num_reviews": null}, {"location_id": "4275377", "name": "Burger King", "latitude": "40.647898", "longitude": "-73.957952", "rating": 2.0, "num_reviews": 2}, {"location_id": "5064730", "name": "Four Seasons Bakery and Juice Bar", "latitude": "40.650654", "longitude": "-73.956137", "rating": 4.7, "num_reviews": 3}, {"location_id": "17832377", "name": "Dunkin'", "latitude": "40.650851", "longitude": "-73.958569", "rating": 2.0, "num_reviews": 1}]