[{"location_id": "26923882", "name": "El Cafe", "latitude": "37.742956", "longitude": "-122.481216", "rating": null, "num_reviews": null}, {"location_id": "7592493", "name": "Grubbin'", "latitude": "37.742953", "longitude": "-122.481306", "rating": 4.6, "num_reviews": 7}, {"location_id": "27084644", "name": "McCoppin Square", "latitude": "37.743145", "longitude": "-122.479885", "rating": null, "num_reviews": null}, {"location_id": "25503600", "name": "Stix", "latitude": "37.742599", "longitude": "-122.480919", "rating": null, "num_reviews": null}, {"location_id": "368769", "name": "Marco Polo Italian Ice Cream", "latitude": "37.742752", "longitude": "-122.48192", "rating": 4.4, "num_reviews": 29}, {"location_id": "21205611", "name": "Lost & Found", "latitude": "37.742661", "longitude": "-122.481789", "rating": 2.0, "num_reviews": 1}, {"location_id": "10129904", "name": "Lou's Cafe on Taraval", "latitude": "37.742987", "longitude": "-122.482442", "rating": 4.8, "num_reviews": 11}, {"location_id": "27914853", "name": "Good Luck Market", "latitude": "37.742788", "longitude": "-122.479285", "rating": null, "num_reviews": null}, {"location_id": "15168622", "name": "Kfc", "latitude": "37.743113", "longitude": "-122.478805", "rating": null, "num_reviews": null}, {"location_id": "5014935", "name": "Taco Bell / Kfc", "latitude": "37.743122", "longitude": "-122.478797", "rating": 3.5, "num_reviews": 2}, {"location_id": "6706510", "name": "La Petite Rose Spa", "latitude": "37.74238", "longitude": "-122.48217", "rating": 5.0, "num_reviews": 2}, {"location_id": "25468464", "name": "Sugar & Water", "latitude": "37.742768", "longitude": "-122.478742", "rating": null, "num_reviews": null}, {"location_id": "25559058", "name": "Riji Cafe", "latitude": "37.742768", "longitude": "-122.478742", "rating": null, "num_reviews": null}, {"location_id": "480557", "name": "King of Thai", "latitude": "37.742584", "longitude": "-122.482845", "rating": 3.9, "num_reviews": 24}, {"location_id": "537323", "name": "Tennessee Grill", "latitude": "37.743102", "longitude": "-122.478399", "rating": 3.9, "num_reviews": 24}, {"location_id": "24187344", "name": "Milktopia", "latitude": "37.742796", "longitude": "-122.47858", "rating": null, "num_reviews": null}, {"location_id": "27915093", "name": "Yeye Coconut Snacks", "latitude": "37.742816", "longitude": "-122.478549", "rating": null, "num_reviews": null}, {"location_id": "7007216", "name": "Antigua Coffee Shop", "latitude": "37.742788", "longitude": "-122.478419", "rating": 4.8, "num_reviews": 5}, {"location_id": "2334088", "name": "El Burrito Express", "latitude": "37.742598", "longitude": "-122.483348", "rating": 4.0, "num_reviews": 13}, {"location_id": "26884665", "name": "Dumpling Specialist", "latitude": "37.742784", "longitude": "-122.478211", "rating": 4.0, "num_reviews": 1}]