[{"location_id": "34352460", "name": "Park Terrace Hotel", "latitude": "40.752542", "longitude": "-73.982955", "rating": null, "num_reviews": null}, {"location_id": "34318036", "name": "Branch", "latitude": "40.752505", "longitude": "-73.982957", "rating": null, "num_reviews": null}, {"location_id": "12860361", "name": "Chipotle Mexican Grill", "latitude": "40.752712", "longitude": "-73.983304", "rating": 3.8, "num_reviews": 6}, {"location_id": "23837197", "name": "La Pecora Bianca Bryant Park", "latitude": "40.752518", "longitude": "-73.983154", "rating": 4.0, "num_reviews": 100}, {"location_id": "15135187", "name": "Park Terrace Hotel", "latitude": "40.752491", "longitude": "-73.983109", "rating": 4.8, "num_reviews": 2992}, {"location_id": "13510451", "name": "Royce Chocolate", "latitude": "40.75277", "longitude": "-73.98345", "rating": 4.8, "num_reviews": 8}, {"location_id": "3774368", "name": "Bryant Park Grill", "latitude": "40.753208", "longitude": "-73.982956", "rating": 4.0, "num_reviews": 1936}, {"location_id": "548786", "name": "Ronin Gallery", "latitude": "40.75273", "longitude": "-73.983505", "rating": 4.0, "num_reviews": 1}, {"location_id": "26264984", "name": "The Porch At Bryant Park", "latitude": "40.753032", "longitude": "-73.983424", "rating": 3.4, "num_reviews": 8}, {"location_id": "33286692", "name": "Heritage Grand Restaurant And Pizza Bar", "latitude": "40.752363", "longitude": "-73.982637", "rating": 4.3, "num_reviews": 3}, {"location_id": "27690760", "name": "Talea Beer Co. Bryant Park", "latitude": "40.752639", "longitude": "-73.983549", "rating": 5.0, "num_reviews": 3}, {"location_id": "25065546", "name": "Heritage Grand Bakery", "latitude": "40.752319", "longitude": "-73.982689", "rating": 4.8, "num_reviews": 41}, {"location_id": "7745909", "name": "Lady M Cake Boutique - New York City", "latitude": "40.752786", "longitude": "-73.983615", "rating": 4.3, "num_reviews": 267}, {"location_id": "559106", "name": "American Standard Building", "latitude": "40.75286", "longitude": "-73.98365", "rating": 4.4, "num_reviews": 32}, {"location_id": "548430", "name": "Cellar Bar", "latitude": "40.75286", "longitude": "-73.98365", "rating": 3.8, "num_reviews": 30}, {"location_id": "224214", "name": "The Bryant Park Hotel", "latitude": "40.752895", "longitude": "-73.983696", "rating": 4.8, "num_reviews": 5521}, {"location_id": "15175350", "name": "Wafels & Dinges", "latitude": "40.753092", "longitude": "-73.983614", "rating": 4.7, "num_reviews": 14}, {"location_id": "3792220", "name": "Celsius at Bryant Park", "latitude": "40.753092", "longitude": "-73.983614", "rating": 3.7, "num_reviews": 45}, {"location_id": "5963127", "name": "Xcelerated Adventures", "latitude": "40.753092", "longitude": "-73.983614", "rating": 4.9, "num_reviews": 59}, {"location_id": "25478043", "name": "UhMazing BLT's", "latitude": "40.752262", "longitude": "-73.983416", "rating": null, "num_reviews": null}]