[{"location_id": "104530", "name": "USS Pampanito", "latitude": "37.809956", "longitude": "-122.416443", "rating": 4.3, "num_reviews": 801}, {"location_id": "372212", "name": "Scoma's Restaurant", "latitude": "37.808926", "longitude": "-122.418251", "rating": 4.3, "num_reviews": 6381}, {"location_id": "104542", "name": "Musee Mecanique", "latitude": "37.809304", "longitude": "-122.415968", "rating": 4.5, "num_reviews": 3002}, {"location_id": "4834724", "name": "Lynx the Animator", "latitude": "37.808901", "longitude": "-122.415985", "rating": 5.0, "num_reviews": 2}, {"location_id": "5612700", "name": "Argo Sport Fishing & Charter Boat - Private Charters", "latitude": "37.808901", "longitude": "-122.415985", "rating": 5.0, "num_reviews": 33}, {"location_id": "3243404", "name": "Silver Fox Fishing and Tours", "latitude": "37.808189", "longitude": "-122.417077", "rating": 4.9, "num_reviews": 13}, {"location_id": "4108139", "name": "Bass Tub Sportfishing", "latitude": "37.80809", "longitude": "-122.41782", "rating": 5.0, "num_reviews": 26}, {"location_id": "6439826", "name": "Lovely Martha Sportfishing", "latitude": "37.80809", "longitude": "-122.41782", "rating": 4.9, "num_reviews": 19}, {"location_id": "6434371", "name": "Wild Wave Sport Fishing Charters", "latitude": "37.808246", "longitude": "-122.416643", "rating": 5.0, "num_reviews": 43}, {"location_id": "15121825", "name": "Nautilus Excursions", "latitude": "37.808254", "longitude": "-122.416618", "rating": 5.0, "num_reviews": 1}, {"location_id": "19119968", "name": "Zea Gallery", "latitude": "37.808182", "longitude": "-122.416832", "rating": null, "num_reviews": null}, {"location_id": "15555049", "name": "Wheel Fun Rentals", "latitude": "37.80917", "longitude": "-122.415398", "rating": null, "num_reviews": null}, {"location_id": "156697", "name": "Tarantino's", "latitude": "37.808349", "longitude": "-122.416301", "rating": 3.3, "num_reviews": 54}, {"location_id": "4137011", "name": "Flash Sport Fishing Charters of San Francisco", "latitude": "37.80827", "longitude": "-122.416461", "rating": 5.0, "num_reviews": 11}, {"location_id": "4037423", "name": "Latte express", "latitude": "37.808372", "longitude": "-122.416246", "rating": 4.5, "num_reviews": 6}, {"location_id": "480600", "name": "Nonna Rose", "latitude": "37.808519", "longitude": "-122.416007", "rating": 3.3, "num_reviews": 48}, {"location_id": "2290964", "name": "Chowder Hut Grill", "latitude": "37.808767", "longitude": "-122.415625", "rating": 3.9, "num_reviews": 716}, {"location_id": "4472389", "name": "Flash Sport Fishing", "latitude": "37.80816", "longitude": "-122.41658", "rating": 5.0, "num_reviews": 12}, {"location_id": "797856", "name": "San Francisco Movie Tours", "latitude": "37.809162", "longitude": "-122.415314", "rating": 4.9, "num_reviews": 1272}, {"location_id": "33365869", "name": "Unforgettable Fishing Adventures", "latitude": "37.808308", "longitude": "-122.416203", "rating": null, "num_reviews": null}]