[{"location_id": "10306891", "name": "Starbucks", "latitude": "40.59322", "longitude": "-74.00098", "rating": 3.0, "num_reviews": 1}, {"location_id": "27067534", "name": "Kohl's", "latitude": "40.593315", "longitude": "-74.000707", "rating": null, "num_reviews": null}, {"location_id": "27059321", "name": "Target", "latitude": "40.593872", "longitude": "-74.0011", "rating": null, "num_reviews": null}, {"location_id": "33043179", "name": "Teriyaki One", "latitude": "40.593448", "longitude": "-73.999532", "rating": 5.0, "num_reviews": 1}, {"location_id": "34131441", "name": "Wheel Fun Rentals - Bensonhurst Park", "latitude": "40.59561", "longitude": "-74.000868", "rating": null, "num_reviews": null}, {"location_id": "4661923", "name": "Pizza D'Amore", "latitude": "40.595337", "longitude": "-74.000542", "rating": 4.3, "num_reviews": 4}, {"location_id": "8449196", "name": "Five Guys", "latitude": "40.595235", "longitude": "-74.000189", "rating": 4.1, "num_reviews": 7}, {"location_id": "4627264", "name": "Wendy's", "latitude": "40.595475", "longitude": "-74.000202", "rating": 4.0, "num_reviews": 4}, {"location_id": "16799602", "name": "Olive Garden Italian Restaurant", "latitude": "40.59396", "longitude": "-73.998154", "rating": 2.8, "num_reviews": 9}, {"location_id": "17832348", "name": "Dunkin'", "latitude": "40.592526", "longitude": "-73.997389", "rating": null, "num_reviews": null}, {"location_id": "10154139", "name": "Harbor Motor Inn", "latitude": "40.593549", "longitude": "-73.997363", "rating": 2.8, "num_reviews": 9}, {"location_id": "27038121", "name": "Bensonhurst Park", "latitude": "40.597004", "longitude": "-73.999563", "rating": null, "num_reviews": null}, {"location_id": "25498985", "name": "Royal deli grill", "latitude": "40.599789", "longitude": "-74.002699", "rating": null, "num_reviews": null}, {"location_id": "20985707", "name": "Eastern Chinese Restaurant", "latitude": "40.599869", "longitude": "-74.002777", "rating": null, "num_reviews": null}, {"location_id": "33390015", "name": "Taste Lab", "latitude": "40.599872", "longitude": "-74.002765", "rating": null, "num_reviews": null}, {"location_id": "33279509", "name": "Figo Pizza", "latitude": "40.598423", "longitude": "-73.997715", "rating": 5.0, "num_reviews": 1}, {"location_id": "26894884", "name": "Ahmed grocery and halal meat", "latitude": "40.598774", "longitude": "-73.998131", "rating": null, "num_reviews": null}, {"location_id": "5537314", "name": "Dunkin'", "latitude": "40.598083", "longitude": "-73.997225", "rating": 3.0, "num_reviews": 2}, {"location_id": "19677968", "name": "Carvel", "latitude": "40.598567", "longitude": "-73.997819", "rating": null, "num_reviews": null}, {"location_id": "23824767", "name": "Assaia", "latitude": "40.598703", "longitude": "-73.997985", "rating": 4.5, "num_reviews": 4}]