[{"location_id": "156679", "name": "Hollyhock House", "latitude": "34.099976", "longitude": "-118.294403", "rating": 4.4, "num_reviews": 197}, {"location_id": "2234805", "name": "Barnsdall Art Park", "latitude": "34.100414", "longitude": "-118.294395", "rating": 4.2, "num_reviews": 42}, {"location_id": "28650527", "name": "Barnsdall Junior Art Center", "latitude": "34.099732", "longitude": "-118.293768", "rating": 4.0, "num_reviews": 1}, {"location_id": "28650516", "name": "Los Angeles Municipal Art Gallery", "latitude": "34.100411", "longitude": "-118.293846", "rating": 4.0, "num_reviews": 1}, {"location_id": "25545376", "name": "brazil outlet", "latitude": "34.099896", "longitude": "-118.292635", "rating": null, "num_reviews": null}, {"location_id": "26328324", "name": "La Hookah Lounge", "latitude": "34.099895", "longitude": "-118.292633", "rating": null, "num_reviews": null}, {"location_id": "19669983", "name": "Imperial Chopsticks (Vermont Ave)", "latitude": "34.099767", "longitude": "-118.292641", "rating": null, "num_reviews": null}, {"location_id": "524950", "name": "Golden Dragon Express", "latitude": "34.09978", "longitude": "-118.29261", "rating": 4.0, "num_reviews": 1}, {"location_id": "34250696", "name": "The Pack Theater", "latitude": "34.10066", "longitude": "-118.292617", "rating": null, "num_reviews": null}, {"location_id": "17607739", "name": "InterAct LA", "latitude": "34.1003", "longitude": "-118.29639", "rating": null, "num_reviews": null}, {"location_id": "1108833", "name": "Yai on Vermont", "latitude": "34.100961", "longitude": "-118.292639", "rating": 3.9, "num_reviews": 8}, {"location_id": "16881961", "name": "Sea Salt", "latitude": "34.101344", "longitude": "-118.292962", "rating": 5.0, "num_reviews": 1}, {"location_id": "4866255", "name": "Oi Asian Fusion", "latitude": "34.101392", "longitude": "-118.293031", "rating": 4.5, "num_reviews": 20}, {"location_id": "12837844", "name": "LA Face & Mind", "latitude": "34.10142", "longitude": "-118.29568", "rating": null, "num_reviews": null}, {"location_id": "25544797", "name": "Boba Me", "latitude": "34.101375", "longitude": "-118.292838", "rating": null, "num_reviews": null}, {"location_id": "33238722", "name": "California Chicken Cafe", "latitude": "34.101558", "longitude": "-118.295961", "rating": null, "num_reviews": null}, {"location_id": "593819", "name": "Bamboo House", "latitude": "34.10171", "longitude": "-118.29579", "rating": 4.0, "num_reviews": 3}, {"location_id": "4245897", "name": "Fatburger", "latitude": "34.100845", "longitude": "-118.291991", "rating": 4.1, "num_reviews": 32}, {"location_id": "23285218", "name": "Starbucks", "latitude": "34.097893", "longitude": "-118.292619", "rating": null, "num_reviews": null}, {"location_id": "33421889", "name": "PlayLab Hollywood", "latitude": "34.098606", "longitude": "-118.297016", "rating": null, "num_reviews": null}]