[{"location_id": "105415", "name": "Children's Creativity Museum", "latitude": "37.783311", "longitude": "-122.402075", "rating": 4.5, "num_reviews": 87}, {"location_id": "20075898", "name": "Creativity Theater", "latitude": "37.78312", "longitude": "-122.40228", "rating": null, "num_reviews": null}, {"location_id": "15319025", "name": "Canopy by Hilton San Francisco SoMa", "latitude": "37.782478", "longitude": "-122.401947", "rating": 4.2, "num_reviews": 347}, {"location_id": "3505807", "name": "San Francisco Visitor Information Center", "latitude": "37.783749", "longitude": "-122.401756", "rating": 3.9, "num_reviews": 90}, {"location_id": "19981284", "name": "Funny Library Coffee Shop", "latitude": "37.782433", "longitude": "-122.402138", "rating": null, "num_reviews": null}, {"location_id": "27173528", "name": "Bean Bar", "latitude": "37.782396", "longitude": "-122.402055", "rating": null, "num_reviews": null}, {"location_id": "32974848", "name": "Bean Bar Cafe", "latitude": "37.782396", "longitude": "-122.402055", "rating": null, "num_reviews": null}, {"location_id": "27173527", "name": "The Social", "latitude": "37.782396", "longitude": "-122.402055", "rating": null, "num_reviews": null}, {"location_id": "26453946", "name": "Shelby's Rooftop", "latitude": "37.782386", "longitude": "-122.402097", "rating": 3.6, "num_reviews": 10}, {"location_id": "17389515", "name": "Everdene", "latitude": "37.782387", "longitude": "-122.4021", "rating": 4.4, "num_reviews": 8}, {"location_id": "27922799", "name": "Oasis Grill", "latitude": "37.783063", "longitude": "-122.402731", "rating": null, "num_reviews": null}, {"location_id": "33061112", "name": "Nick The Greek", "latitude": "37.783423", "longitude": "-122.402922", "rating": 3.0, "num_reviews": 1}, {"location_id": "25414114", "name": "Aphotic", "latitude": "37.781996", "longitude": "-122.40164", "rating": 5.0, "num_reviews": 3}, {"location_id": "105417", "name": "Yerba Buena Ice Skating & Bowling Center", "latitude": "37.78266", "longitude": "-122.40044", "rating": 4.2, "num_reviews": 13}, {"location_id": "10244141", "name": "Yerba Buena Gardens", "latitude": "37.784163", "longitude": "-122.401788", "rating": 4.0, "num_reviews": 14}, {"location_id": "32983221", "name": "Heytea", "latitude": "37.783619", "longitude": "-122.402924", "rating": null, "num_reviews": null}, {"location_id": "493520", "name": "Jillian's", "latitude": "37.78364", "longitude": "-122.40294", "rating": 3.5, "num_reviews": 88}, {"location_id": "19663564", "name": "Subway", "latitude": "37.782173", "longitude": "-122.400703", "rating": 3.0, "num_reviews": 1}, {"location_id": "14877721", "name": "Tabletop Tap House", "latitude": "37.783836", "longitude": "-122.403003", "rating": 3.7, "num_reviews": 18}, {"location_id": "16929746", "name": "Palette", "latitude": "37.781776", "longitude": "-122.401871", "rating": 4.7, "num_reviews": 11}]