[{"location_id": "3652457", "name": "Off the Grid: Fort Mason Center", "latitude": "37.806281", "longitude": "-122.431335", "rating": 4.6, "num_reviews": 196}, {"location_id": "5829126", "name": "Buckham's Lounge", "latitude": "37.80485", "longitude": "-122.42723", "rating": null, "num_reviews": null}, {"location_id": "127934", "name": "The Mexican Museum", "latitude": "37.80485", "longitude": "-122.42723", "rating": 4.0, "num_reviews": 2}, {"location_id": "13150708", "name": "Equator Coffees", "latitude": "37.805351", "longitude": "-122.4319", "rating": 4.5, "num_reviews": 16}, {"location_id": "12388999", "name": "J-Pop Summit", "latitude": "37.80675", "longitude": "-122.43076", "rating": 4.0, "num_reviews": 1}, {"location_id": "7309031", "name": "The Interval at Long Now", "latitude": "37.80675", "longitude": "-122.43076", "rating": 4.7, "num_reviews": 21}, {"location_id": "531996", "name": "Magic Theatre", "latitude": "37.80675", "longitude": "-122.43076", "rating": 5.0, "num_reviews": 6}, {"location_id": "5209560", "name": "Goody Cafe", "latitude": "37.806527", "longitude": "-122.431413", "rating": 4.3, "num_reviews": 4}, {"location_id": "11983315", "name": "Scoot", "latitude": "37.805485", "longitude": "-122.43213", "rating": 5.0, "num_reviews": 1}, {"location_id": "12881505", "name": "Environmental Traveling Companions", "latitude": "37.806637", "longitude": "-122.43145", "rating": 5.0, "num_reviews": 4}, {"location_id": "2023190", "name": "SF Bay Whale Watching", "latitude": "37.805314", "longitude": "-122.432344", "rating": 4.1, "num_reviews": 214}, {"location_id": "5481909", "name": "Cafe Franco", "latitude": "37.807236", "longitude": "-122.428803", "rating": 4.5, "num_reviews": 25}, {"location_id": "142417", "name": "Museo Italo Americano", "latitude": "37.806758", "longitude": "-122.431448", "rating": 4.5, "num_reviews": 6}, {"location_id": "291222", "name": "HI San Francisco Fisherman's Wharf Hostel", "latitude": "37.80711", "longitude": "-122.428329", "rating": 3.9, "num_reviews": 576}, {"location_id": "557299", "name": "San Francisco African American Historical & Cultural Society", "latitude": "37.806438", "longitude": "-122.4273", "rating": null, "num_reviews": null}, {"location_id": "3652786", "name": "Round Table Pizza", "latitude": "37.80412", "longitude": "-122.432152", "rating": 3.0, "num_reviews": 3}, {"location_id": "531846", "name": "BATS Improv", "latitude": "37.806524", "longitude": "-122.431846", "rating": 4.4, "num_reviews": 30}, {"location_id": "15054295", "name": "Radhaus", "latitude": "37.806448", "longitude": "-122.432177", "rating": 3.9, "num_reviews": 49}, {"location_id": "28185652", "name": "Sf Camerawork", "latitude": "37.806608", "longitude": "-122.432039", "rating": null, "num_reviews": null}, {"location_id": "128838", "name": "Fort Mason, the Great Meadow", "latitude": "37.80395", "longitude": "-122.42674", "rating": 4.3, "num_reviews": 81}]