[{"location_id": "34426088", "name": "Mount Olympus Park", "latitude": "37.76368", "longitude": "-122.445611", "rating": null, "num_reviews": null}, {"location_id": "26880440", "name": "Upper Terrace Market", "latitude": "37.76177", "longitude": "-122.44526", "rating": null, "num_reviews": null}, {"location_id": "5838499", "name": "Blue Balls Coffee", "latitude": "37.76478", "longitude": "-122.444", "rating": 5.0, "num_reviews": 1}, {"location_id": "23501571", "name": "The Cole Stroll", "latitude": "37.765616", "longitude": "-122.447454", "rating": null, "num_reviews": null}, {"location_id": "25518625", "name": "Happy Moose Juice", "latitude": "37.760356", "longitude": "-122.444054", "rating": null, "num_reviews": null}, {"location_id": "479270", "name": "Boulange de Cole Valley", "latitude": "37.76476", "longitude": "-122.44945", "rating": 4.0, "num_reviews": 35}, {"location_id": "12543190", "name": "La Boulangerie de San Francisco", "latitude": "37.764778", "longitude": "-122.449514", "rating": 3.6, "num_reviews": 13}, {"location_id": "27857723", "name": "Luke's Local", "latitude": "37.765014", "longitude": "-122.449672", "rating": 2.0, "num_reviews": 1}, {"location_id": "27064993", "name": "Al's Park", "latitude": "37.759575", "longitude": "-122.445467", "rating": null, "num_reviews": null}, {"location_id": "3497278", "name": "Bacon Bacon", "latitude": "37.767027", "longitude": "-122.446697", "rating": 4.4, "num_reviews": 71}, {"location_id": "27856658", "name": "Ashbury Market", "latitude": "37.767049", "longitude": "-122.446581", "rating": null, "num_reviews": null}, {"location_id": "25513789", "name": "Fat Buffalo", "latitude": "37.767063", "longitude": "-122.446662", "rating": null, "num_reviews": null}, {"location_id": "5836995", "name": "Kezar Bar & Restaurant", "latitude": "37.76557", "longitude": "-122.44969", "rating": 4.7, "num_reviews": 3}, {"location_id": "527866", "name": "Kezar Bar & Restaurant Cole Street", "latitude": "37.76557", "longitude": "-122.44969", "rating": 4.2, "num_reviews": 38}, {"location_id": "377932", "name": "Bambino's Ristrorante", "latitude": "37.765156", "longitude": "-122.450017", "rating": 4.3, "num_reviews": 85}, {"location_id": "493278", "name": "Grandeho's Kamekyo - Cole Valley", "latitude": "37.76512", "longitude": "-122.45011", "rating": 3.7, "num_reviews": 19}, {"location_id": "368755", "name": "Zazie", "latitude": "37.76524", "longitude": "-122.450097", "rating": 4.5, "num_reviews": 595}, {"location_id": "5830728", "name": "Finnegans Wake", "latitude": "37.76529", "longitude": "-122.45015", "rating": 3.5, "num_reviews": 8}, {"location_id": "21144663", "name": "Beit Rima", "latitude": "37.765978", "longitude": "-122.449665", "rating": null, "num_reviews": null}, {"location_id": "446784", "name": "BurgerMeister", "latitude": "37.76601", "longitude": "-122.44969", "rating": 3.9, "num_reviews": 68}]