[{"location_id": "2303665", "name": "Central Park Sunset Tours", "latitude": "40.77208", "longitude": "-73.9717", "rating": 4.9, "num_reviews": 200}, {"location_id": "6632685", "name": "The Yoga Trail", "latitude": "40.772888", "longitude": "-73.974289", "rating": 4.7, "num_reviews": 236}, {"location_id": "6404433", "name": "Le Pain Quotidien", "latitude": "40.773035", "longitude": "-73.974316", "rating": 3.6, "num_reviews": 244}, {"location_id": "24177226", "name": "UrbanNomad YOGA IN CENTRAL PARK", "latitude": "40.773026", "longitude": "-73.97435", "rating": null, "num_reviews": null}, {"location_id": "10067208", "name": "Bethesda Terrace", "latitude": "40.773819", "longitude": "-73.970825", "rating": 4.6, "num_reviews": 104}, {"location_id": "32986475", "name": "NYC Beginner Private Birdwatching Tour", "latitude": "40.773823", "longitude": "-73.970819", "rating": null, "num_reviews": null}, {"location_id": "19258487", "name": "NYC horse carriage services", "latitude": "40.774781", "longitude": "-73.972554", "rating": 4.7, "num_reviews": 104}, {"location_id": "6983798", "name": "Wagner Cove", "latitude": "40.774784", "longitude": "-73.973351", "rating": 4.4, "num_reviews": 20}, {"location_id": "6592629", "name": "Richie's Central Park Pedicab Tours", "latitude": "40.774994", "longitude": "-73.972694", "rating": 5.0, "num_reviews": 439}, {"location_id": "532126", "name": "The Mall", "latitude": "40.771042", "longitude": "-73.972099", "rating": 4.6, "num_reviews": 70}, {"location_id": "14086142", "name": "Daniel Webster Monument", "latitude": "40.774755", "longitude": "-73.974112", "rating": 3.2, "num_reviews": 12}, {"location_id": "21494971", "name": "Women's Rights Pioneers Monument", "latitude": "40.770737", "longitude": "-73.972305", "rating": 4.7, "num_reviews": 10}, {"location_id": "27025625", "name": "Sheep Meadow", "latitude": "40.771686", "longitude": "-73.975174", "rating": 3.0, "num_reviews": 1}, {"location_id": "12150308", "name": "Bow Bridge", "latitude": "40.775804", "longitude": "-73.971812", "rating": 4.6, "num_reviews": 89}, {"location_id": "33025469", "name": "The Obelisk", "latitude": "40.770287", "longitude": "-73.97337", "rating": 5.0, "num_reviews": 1}, {"location_id": "8770565", "name": "Balto Statue", "latitude": "40.769985", "longitude": "-73.971016", "rating": 4.3, "num_reviews": 92}, {"location_id": "532132", "name": "Strawberry Fields", "latitude": "40.775734", "longitude": "-73.975204", "rating": 4.1, "num_reviews": 1878}, {"location_id": "28185061", "name": "Strawberry Fields", "latitude": "40.775801", "longitude": "-73.975124", "rating": null, "num_reviews": null}, {"location_id": "15216018", "name": "7evenwheels Central Park Pedicab Tour", "latitude": "40.775732", "longitude": "-73.975249", "rating": 5.0, "num_reviews": 8}, {"location_id": "7057803", "name": "Birding Bob", "latitude": "40.775162", "longitude": "-73.968719", "rating": 4.7, "num_reviews": 129}]