[{"location_id": "8733848", "name": "St. Mary's Square", "latitude": "37.792042", "longitude": "-122.40524", "rating": 3.6, "num_reviews": 24}, {"location_id": "313399", "name": "49 Geary Street Art Galleries", "latitude": "37.79185", "longitude": "-122.405781", "rating": 3.4, "num_reviews": 10}, {"location_id": "2390384", "name": "A Pied Tours", "latitude": "37.791512", "longitude": "-122.405724", "rating": 4.9, "num_reviews": 14}, {"location_id": "13234973", "name": "Comfort Women Statue - San Francisco", "latitude": "37.792374", "longitude": "-122.405425", "rating": 3.3, "num_reviews": 11}, {"location_id": "26889964", "name": "Coffee Bar", "latitude": "37.792042", "longitude": "-122.404526", "rating": null, "num_reviews": null}, {"location_id": "15191960", "name": "China Station", "latitude": "37.79132", "longitude": "-122.40552", "rating": 3.0, "num_reviews": 1}, {"location_id": "12623725", "name": "LD Jewelry", "latitude": "37.79188", "longitude": "-122.406", "rating": null, "num_reviews": null}, {"location_id": "15208094", "name": "Chinatown Alleys", "latitude": "37.79236", "longitude": "-122.40469", "rating": 4.6, "num_reviews": 16}, {"location_id": "81004", "name": "Grant Plaza Hotel", "latitude": "37.791393", "longitude": "-122.405846", "rating": 3.1, "num_reviews": 1017}, {"location_id": "21144353", "name": "Trace Contemporary", "latitude": "37.791191", "longitude": "-122.405496", "rating": null, "num_reviews": null}, {"location_id": "26977112", "name": "China Station", "latitude": "37.791223", "longitude": "-122.405607", "rating": null, "num_reviews": null}, {"location_id": "3652317", "name": "Pasilla Mexican Grill", "latitude": "37.7915", "longitude": "-122.40438", "rating": 4.0, "num_reviews": 6}, {"location_id": "28169898", "name": "Bluestream Gallery", "latitude": "37.79214", "longitude": "-122.406041", "rating": null, "num_reviews": null}, {"location_id": "6593008", "name": "Peony Foot Spa", "latitude": "37.79185", "longitude": "-122.40612", "rating": 4.4, "num_reviews": 14}, {"location_id": "676287", "name": "Rock Japanese Cuisine", "latitude": "37.791611", "longitude": "-122.406096", "rating": 3.9, "num_reviews": 94}, {"location_id": "19012547", "name": "Home Coffee Roasters", "latitude": "37.791283", "longitude": "-122.405823", "rating": 4.6, "num_reviews": 5}, {"location_id": "14935958", "name": "Sing Fat Co. building", "latitude": "37.79237", "longitude": "-122.40589", "rating": 4.4, "num_reviews": 5}, {"location_id": "34271983", "name": "Grant N Pine", "latitude": "37.791584", "longitude": "-122.406097", "rating": null, "num_reviews": null}, {"location_id": "6735387", "name": "Plentea", "latitude": "37.791391", "longitude": "-122.404346", "rating": 4.4, "num_reviews": 32}, {"location_id": "360135", "name": "Baladie", "latitude": "37.791333", "longitude": "-122.404335", "rating": 3.9, "num_reviews": 19}]