[{"location_id": "156816", "name": "Rosicrucian Egyptian Museum", "latitude": "37.333646", "longitude": "-121.922913", "rating": 4.4, "num_reviews": 941}, {"location_id": "28189282", "name": "Rosicrucian Park", "latitude": "37.334221", "longitude": "-121.923117", "rating": null, "num_reviews": null}, {"location_id": "28189325", "name": "Alchemy Museum", "latitude": "37.334519", "longitude": "-121.923031", "rating": null, "num_reviews": null}, {"location_id": "33733602", "name": "Campus Burgers", "latitude": "37.33403", "longitude": "-121.924583", "rating": 4.0, "num_reviews": 1}, {"location_id": "27031400", "name": "Hester Park", "latitude": "37.331457", "longitude": "-121.92541", "rating": null, "num_reviews": null}, {"location_id": "2196604", "name": "Municipal Rose Garden", "latitude": "37.332413", "longitude": "-121.927811", "rating": 4.6, "num_reviews": 637}, {"location_id": "28189347", "name": "Park And Hester Market", "latitude": "37.3298", "longitude": "-121.919343", "rating": null, "num_reviews": null}, {"location_id": "23905915", "name": "TrioSpa - Massage, Facials & Waxing", "latitude": "37.334771", "longitude": "-121.91654", "rating": null, "num_reviews": null}, {"location_id": "28167988", "name": "Beyond The Spa - Alameda", "latitude": "37.337236", "longitude": "-121.918138", "rating": null, "num_reviews": null}, {"location_id": "5030632", "name": "Center for Spiritual Enlightenment", "latitude": "37.33891", "longitude": "-121.92231", "rating": 4.8, "num_reviews": 8}, {"location_id": "12756519", "name": "LUNA Mexican Kitchen - The Alameda", "latitude": "37.333939", "longitude": "-121.915291", "rating": 4.5, "num_reviews": 85}, {"location_id": "19942583", "name": "Mansion Startup House", "latitude": "37.339073", "longitude": "-121.92586", "rating": 1.0, "num_reviews": 1}, {"location_id": "33969760", "name": "T-T Deli", "latitude": "37.33522", "longitude": "-121.914999", "rating": null, "num_reviews": null}, {"location_id": "6591729", "name": "Wine Affairs", "latitude": "37.33324", "longitude": "-121.9145", "rating": 3.6, "num_reviews": 17}, {"location_id": "225261", "name": "Rose Garden Inn - San Jose Airport", "latitude": "37.34021", "longitude": "-121.9219", "rating": 3.0, "num_reviews": 334}, {"location_id": "25480916", "name": "Wings-Station", "latitude": "37.340241", "longitude": "-121.921811", "rating": null, "num_reviews": null}, {"location_id": "25545526", "name": "Breaking Bad Tacos", "latitude": "37.34031", "longitude": "-121.921968", "rating": null, "num_reviews": null}, {"location_id": "813514", "name": "Tee Nee Thai", "latitude": "37.333157", "longitude": "-121.914244", "rating": 4.1, "num_reviews": 64}, {"location_id": "3456052", "name": "Zona Rosa", "latitude": "37.333056", "longitude": "-121.914167", "rating": 4.1, "num_reviews": 108}, {"location_id": "4977728", "name": "China Inn Restaurant", "latitude": "37.33289", "longitude": "-121.91413", "rating": 3.5, "num_reviews": 14}]