[{"location_id": "7603262", "name": "Jade Chocolates", "latitude": "37.7807", "longitude": "-122.46448", "rating": 4.5, "num_reviews": 6}, {"location_id": "5050685", "name": "Cafe Coco", "latitude": "37.7808", "longitude": "-122.46448", "rating": 4.2, "num_reviews": 5}, {"location_id": "27896281", "name": "Muukata6395", "latitude": "37.780704", "longitude": "-122.46463", "rating": null, "num_reviews": null}, {"location_id": "25519823", "name": "Honey Pig", "latitude": "37.780707", "longitude": "-122.464648", "rating": null, "num_reviews": null}, {"location_id": "5839946", "name": "Sip N Slide", "latitude": "37.78069", "longitude": "-122.4647", "rating": null, "num_reviews": null}, {"location_id": "33390708", "name": "L H Restaurant", "latitude": "37.781243", "longitude": "-122.463986", "rating": null, "num_reviews": null}, {"location_id": "935722", "name": "KFC", "latitude": "37.781246", "longitude": "-122.464156", "rating": 3.9, "num_reviews": 7}, {"location_id": "23226445", "name": "Sabrosa Pizza", "latitude": "37.78131", "longitude": "-122.463686", "rating": 5.0, "num_reviews": 1}, {"location_id": "373686", "name": "Brother's Korean Restaurant", "latitude": "37.781308", "longitude": "-122.463759", "rating": 4.3, "num_reviews": 73}, {"location_id": "5223449", "name": "Taco Bell / Kfc", "latitude": "37.781254", "longitude": "-122.464135", "rating": 3.0, "num_reviews": 4}, {"location_id": "6198547", "name": "The Abbey Tavern", "latitude": "37.78134", "longitude": "-122.46341", "rating": 4.5, "num_reviews": 2}, {"location_id": "456539", "name": "Abbey Tavern", "latitude": "37.78138", "longitude": "-122.463402", "rating": 3.3, "num_reviews": 3}, {"location_id": "11881777", "name": "Green Island Restaurant", "latitude": "37.781292", "longitude": "-122.462457", "rating": 4.0, "num_reviews": 8}, {"location_id": "4710975", "name": "Camp BBQ", "latitude": "37.781398", "longitude": "-122.462525", "rating": null, "num_reviews": null}, {"location_id": "23317479", "name": "Genki Ramen", "latitude": "37.7814", "longitude": "-122.46252", "rating": null, "num_reviews": null}, {"location_id": "156576", "name": "Neptune Society Columbarium", "latitude": "37.77903", "longitude": "-122.46547", "rating": 4.6, "num_reviews": 17}, {"location_id": "941509", "name": "Genki Ramen", "latitude": "37.781208", "longitude": "-122.461986", "rating": 4.1, "num_reviews": 22}, {"location_id": "4931232", "name": "Fizzee's", "latitude": "37.781389", "longitude": "-122.461944", "rating": null, "num_reviews": null}, {"location_id": "33364697", "name": "Teawood Cafe", "latitude": "37.781481", "longitude": "-122.461872", "rating": null, "num_reviews": null}, {"location_id": "3915791", "name": "Kowloon Tong Dessert Cafe", "latitude": "37.781361", "longitude": "-122.465615", "rating": 4.2, "num_reviews": 6}]