[{"location_id": "913287", "name": "Espresso Roma", "latitude": "37.881993", "longitude": "-122.282368", "rating": 3.6, "num_reviews": 11}, {"location_id": "9883114", "name": "Monterey Market", "latitude": "37.88116", "longitude": "-122.28209", "rating": 4.7, "num_reviews": 48}, {"location_id": "26915529", "name": "Magnani Poultry", "latitude": "37.88162", "longitude": "-122.281767", "rating": null, "num_reviews": null}, {"location_id": "26888847", "name": "Raxakoul Coffee & Cheese", "latitude": "37.8817", "longitude": "-122.281675", "rating": null, "num_reviews": null}, {"location_id": "899514", "name": "Hopkins Street Bakery Incorporated", "latitude": "37.88182", "longitude": "-122.281659", "rating": 4.4, "num_reviews": 10}, {"location_id": "25386938", "name": "Asaka Sushi & Bar", "latitude": "37.881678", "longitude": "-122.281528", "rating": null, "num_reviews": null}, {"location_id": "804241", "name": "Gioia Pizzeria", "latitude": "37.881743", "longitude": "-122.28147", "rating": 4.2, "num_reviews": 50}, {"location_id": "28755977", "name": "Three One Four", "latitude": "37.881308", "longitude": "-122.288602", "rating": 5.0, "num_reviews": 3}, {"location_id": "26888846", "name": "Berkeley Natural Grocery Co", "latitude": "37.880923", "longitude": "-122.288607", "rating": null, "num_reviews": null}, {"location_id": "12011565", "name": "Jewel's Terrace Park", "latitude": "37.885086", "longitude": "-122.286992", "rating": 4.8, "num_reviews": 4}, {"location_id": "26968992", "name": "Coffee Conscious", "latitude": "37.881134", "longitude": "-122.289385", "rating": null, "num_reviews": null}, {"location_id": "4105725", "name": "Kiku Sushi", "latitude": "37.88112", "longitude": "-122.28939", "rating": 4.0, "num_reviews": 19}, {"location_id": "6833821", "name": "Brazil Cafe Westbrae Biergarten", "latitude": "37.881401", "longitude": "-122.290237", "rating": 4.2, "num_reviews": 33}, {"location_id": "5288660", "name": "Berkeley Bagels", "latitude": "37.88169", "longitude": "-122.29028", "rating": 4.1, "num_reviews": 9}, {"location_id": "8514142", "name": "North Berkeley Farmers' Market", "latitude": "37.8774", "longitude": "-122.28713", "rating": 4.0, "num_reviews": 9}, {"location_id": "17852752", "name": "Thai Corner", "latitude": "37.882358", "longitude": "-122.290682", "rating": 3.3, "num_reviews": 6}, {"location_id": "25504925", "name": "Cedar Market", "latitude": "37.876854", "longitude": "-122.280273", "rating": null, "num_reviews": null}, {"location_id": "33228011", "name": "Ala Costa Centers", "latitude": "37.87658", "longitude": "-122.28872", "rating": null, "num_reviews": null}, {"location_id": "377677", "name": "Fatapple's Restaurant and Bakery", "latitude": "37.88154", "longitude": "-122.274283", "rating": 3.9, "num_reviews": 47}, {"location_id": "19678745", "name": "Good 2 Go Mart & Curry", "latitude": "37.88172", "longitude": "-122.27385", "rating": null, "num_reviews": null}]