[{"location_id": "507339", "name": "Venice On The Beach Hotel", "latitude": "33.980272", "longitude": "-118.467678", "rating": 4.1, "num_reviews": 644}, {"location_id": "12287050", "name": "Temple Surf", "latitude": "33.978836", "longitude": "-118.46727", "rating": 5.0, "num_reviews": 31}, {"location_id": "113256", "name": "The Venice Beach House", "latitude": "33.980003", "longitude": "-118.466911", "rating": 4.3, "num_reviews": 193}, {"location_id": "25544482", "name": "Blacklabel Wings", "latitude": "33.979235", "longitude": "-118.466952", "rating": null, "num_reviews": null}, {"location_id": "23679909", "name": "Brabu", "latitude": "33.979242", "longitude": "-118.466909", "rating": null, "num_reviews": null}, {"location_id": "28450239", "name": "Nalu Vida Restaurant Venice Beach", "latitude": "33.979286", "longitude": "-118.466827", "rating": 4.9, "num_reviews": 7}, {"location_id": "18187808", "name": "The Pier House", "latitude": "33.979217", "longitude": "-118.466706", "rating": 3.8, "num_reviews": 33}, {"location_id": "480679", "name": "Hinano Cafe", "latitude": "33.979491", "longitude": "-118.46657", "rating": 4.5, "num_reviews": 133}, {"location_id": "4824805", "name": "El Taco Libre", "latitude": "33.9809", "longitude": "-118.46675", "rating": 5.0, "num_reviews": 2}, {"location_id": "542604", "name": "The Venice Whaler", "latitude": "33.978985", "longitude": "-118.46659", "rating": 4.0, "num_reviews": 483}, {"location_id": "13007290", "name": "Venice Bike & Skates", "latitude": "33.97958", "longitude": "-118.46637", "rating": 4.0, "num_reviews": 2}, {"location_id": "7797943", "name": "Marina Electric Bikes", "latitude": "33.978771", "longitude": "-118.46661", "rating": 5.0, "num_reviews": 2}, {"location_id": "12173505", "name": "Golden Wave Surf School", "latitude": "33.97905", "longitude": "-118.46647", "rating": 4.9, "num_reviews": 163}, {"location_id": "468564", "name": "Mercedes' Cuban Grill", "latitude": "33.979142", "longitude": "-118.466301", "rating": 4.2, "num_reviews": 219}, {"location_id": "3193388", "name": "Casa 12", "latitude": "33.979043", "longitude": "-118.4663", "rating": 4.2, "num_reviews": 127}, {"location_id": "33273810", "name": "Washington Square Pizza", "latitude": "33.979711", "longitude": "-118.466141", "rating": 3.0, "num_reviews": 2}, {"location_id": "12225736", "name": "Fun Surf LA", "latitude": "33.978428", "longitude": "-118.466599", "rating": 4.9, "num_reviews": 227}, {"location_id": "27920422", "name": "Bay Market", "latitude": "33.979338", "longitude": "-118.466066", "rating": null, "num_reviews": null}, {"location_id": "26687022", "name": "Divani Indian Bistro", "latitude": "33.979207", "longitude": "-118.466083", "rating": 4.8, "num_reviews": 5}, {"location_id": "26687082", "name": "Divani bistro", "latitude": "33.979207", "longitude": "-118.466083", "rating": 5.0, "num_reviews": 1}]