[{"location_id": "557329", "name": "Swedenborgian Church Of San Francisco", "latitude": "37.79031", "longitude": "-122.44624", "rating": 4.2, "num_reviews": 6}, {"location_id": "4521897", "name": "GaryTours", "latitude": "37.78975", "longitude": "-122.44672", "rating": 5.0, "num_reviews": 170}, {"location_id": "80983", "name": "Hotel Drisco Pacific Heights", "latitude": "37.792179", "longitude": "-122.443245", "rating": 4.8, "num_reviews": 1914}, {"location_id": "34165465", "name": "Coach Junior Concept", "latitude": "37.789801", "longitude": "-122.443274", "rating": null, "num_reviews": null}, {"location_id": "10892697", "name": "Regarding Art San Francisco", "latitude": "37.791798", "longitude": "-122.44199", "rating": 5.0, "num_reviews": 1}, {"location_id": "215242", "name": "Brown Eyed Girl", "latitude": "37.79043", "longitude": "-122.44239", "rating": null, "num_reviews": null}, {"location_id": "10495156", "name": "Sorrel", "latitude": "37.788416", "longitude": "-122.446172", "rating": 4.0, "num_reviews": 39}, {"location_id": "215243", "name": "Fetish", "latitude": "37.78843", "longitude": "-122.44684", "rating": null, "num_reviews": null}, {"location_id": "367035", "name": "Garibaldi's", "latitude": "37.788457", "longitude": "-122.447193", "rating": 4.3, "num_reviews": 187}, {"location_id": "17463654", "name": "Grand Lady Victorian", "latitude": "37.788354", "longitude": "-122.446273", "rating": null, "num_reviews": null}, {"location_id": "19663445", "name": "Mishka Luxury Dog Boutique", "latitude": "37.78834", "longitude": "-122.44759", "rating": null, "num_reviews": null}, {"location_id": "23519541", "name": "Presidio Kebab", "latitude": "37.788009", "longitude": "-122.446726", "rating": 4.5, "num_reviews": 6}, {"location_id": "4619313", "name": "Cafe Luna", "latitude": "37.788026", "longitude": "-122.447291", "rating": 5.0, "num_reviews": 5}, {"location_id": "27031969", "name": "SkinSpirit Presidio Heights", "latitude": "37.787953", "longitude": "-122.447452", "rating": null, "num_reviews": null}, {"location_id": "215245", "name": "Sarah Shaw", "latitude": "37.78839", "longitude": "-122.44373", "rating": null, "num_reviews": null}, {"location_id": "532438", "name": "Good Byes", "latitude": "37.78791", "longitude": "-122.44742", "rating": 4.3, "num_reviews": 4}, {"location_id": "557332", "name": "Twiga", "latitude": "37.78791", "longitude": "-122.44742", "rating": null, "num_reviews": null}, {"location_id": "215246", "name": "Sue Fisher King", "latitude": "37.78852", "longitude": "-122.44336", "rating": 5.0, "num_reviews": 4}, {"location_id": "156614", "name": "Sacramento Street", "latitude": "37.788013", "longitude": "-122.44852", "rating": 3.9, "num_reviews": 14}, {"location_id": "17423143", "name": "Laureate Bar & Lounge", "latitude": "37.787635", "longitude": "-122.446642", "rating": 3.0, "num_reviews": 2}]