[{"location_id": "12491294", "name": "St. Ignatius Church", "latitude": "37.776334", "longitude": "-122.452918", "rating": 4.5, "num_reviews": 11}, {"location_id": "27009148", "name": "Museum Management Consultants, Inc.", "latitude": "37.777963", "longitude": "-122.455996", "rating": null, "num_reviews": null}, {"location_id": "1228220", "name": "Jefferson Airplane House", "latitude": "37.77475", "longitude": "-122.45657", "rating": 4.0, "num_reviews": 7}, {"location_id": "20154483", "name": "Fulton Startup House", "latitude": "37.77473", "longitude": "-122.45672", "rating": null, "num_reviews": null}, {"location_id": "32900017", "name": "University Of San Francisco", "latitude": "37.776544", "longitude": "-122.450306", "rating": null, "num_reviews": null}, {"location_id": "3437745", "name": "San Francyclo Day Tours", "latitude": "37.77635", "longitude": "-122.45822", "rating": 5.0, "num_reviews": 1}, {"location_id": "4493419", "name": "Parkwide Bike Rentals & Tours", "latitude": "37.77726", "longitude": "-122.45001", "rating": 4.2, "num_reviews": 660}, {"location_id": "368752", "name": "Okina Sushi", "latitude": "37.77574", "longitude": "-122.45812", "rating": 3.9, "num_reviews": 10}, {"location_id": "10148025", "name": "Arguello Super Market", "latitude": "37.775658", "longitude": "-122.458142", "rating": 4.6, "num_reviews": 14}, {"location_id": "3965657", "name": "Velo Rogue Cafe", "latitude": "37.77541", "longitude": "-122.4581", "rating": 4.4, "num_reviews": 7}, {"location_id": "4914419", "name": "Velo Rouge Cafe", "latitude": "37.775388", "longitude": "-122.458269", "rating": 4.5, "num_reviews": 35}, {"location_id": "15713243", "name": "War Memorial Gym", "latitude": "37.776875", "longitude": "-122.449511", "rating": 4.0, "num_reviews": 1}, {"location_id": "12408508", "name": "San Francisco Columbarium", "latitude": "37.78037", "longitude": "-122.45699", "rating": 4.6, "num_reviews": 5}, {"location_id": "14787610", "name": "Fuchsia Dell", "latitude": "37.7733", "longitude": "-122.45612", "rating": 4.0, "num_reviews": 1}, {"location_id": "14787598", "name": "Camellia Garden", "latitude": "37.7733", "longitude": "-122.45612", "rating": 4.0, "num_reviews": 1}, {"location_id": "14787609", "name": "Dahlia Garden", "latitude": "37.7733", "longitude": "-122.45612", "rating": 4.7, "num_reviews": 3}, {"location_id": "367110", "name": "Mel's Drive-In", "latitude": "37.78117", "longitude": "-122.45488", "rating": 3.7, "num_reviews": 180}, {"location_id": "6592850", "name": "Rothmann Talks and Tours", "latitude": "37.77857", "longitude": "-122.45906", "rating": 5.0, "num_reviews": 1}, {"location_id": "8444768", "name": "Kaiju Eats Ramen and Izakaya", "latitude": "37.781239", "longitude": "-122.455569", "rating": 4.2, "num_reviews": 20}, {"location_id": "14803824", "name": "McLaren lodge", "latitude": "37.772647", "longitude": "-122.454414", "rating": 3.7, "num_reviews": 6}]