[{"location_id": "32226522", "name": "El Monte Rv Rentals - Santa Cruz", "latitude": "37.053124", "longitude": "-122.009427", "rating": null, "num_reviews": null}, {"location_id": "3493996", "name": "Canepa Motorsports Museum", "latitude": "37.052088", "longitude": "-122.013408", "rating": 4.9, "num_reviews": 30}, {"location_id": "19283867", "name": "5030 Restaurant & Lounge", "latitude": "37.05406", "longitude": "-122.01209", "rating": null, "num_reviews": null}, {"location_id": "12336905", "name": "Four Points by Sheraton Santa Cruz Scotts Valley", "latitude": "37.0538", "longitude": "-122.0126", "rating": 3.2, "num_reviews": 110}, {"location_id": "23110416", "name": "A Brighter World Tie Dye Studio", "latitude": "37.056309", "longitude": "-122.008438", "rating": null, "num_reviews": null}, {"location_id": "5260564", "name": "Santa Cruz Ranch Campground", "latitude": "37.047875", "longitude": "-122.014611", "rating": 3.9, "num_reviews": 328}, {"location_id": "8426004", "name": "The Original Ferrell's Donuts- Scotts Valley", "latitude": "37.055969", "longitude": "-122.012207", "rating": 3.4, "num_reviews": 5}, {"location_id": "2399487", "name": "Rumble Fish", "latitude": "37.050445", "longitude": "-122.015626", "rating": 4.4, "num_reviews": 50}, {"location_id": "27067995", "name": "Scotts Valley Mobile Home Park", "latitude": "37.05812", "longitude": "-122.01044", "rating": null, "num_reviews": null}, {"location_id": "27066009", "name": "MacDorsa Park", "latitude": "37.049431", "longitude": "-122.018214", "rating": null, "num_reviews": null}, {"location_id": "21181929", "name": "Hope Church", "latitude": "37.05918", "longitude": "-122.00123", "rating": null, "num_reviews": null}, {"location_id": "15027965", "name": "Scotts Valley Market", "latitude": "37.060686", "longitude": "-122.006598", "rating": 4.3, "num_reviews": 3}, {"location_id": "4292308", "name": "Starbucks", "latitude": "37.06113", "longitude": "-122.00662", "rating": 3.4, "num_reviews": 5}, {"location_id": "13427443", "name": "JT's Two Doors", "latitude": "37.06113", "longitude": "-122.00662", "rating": 3.8, "num_reviews": 5}, {"location_id": "2562493", "name": "Jia Tella's", "latitude": "37.06114", "longitude": "-122.00663", "rating": 4.1, "num_reviews": 36}, {"location_id": "10507469", "name": "Steel Bonnet Brewing Company", "latitude": "37.06118", "longitude": "-122.00746", "rating": 4.5, "num_reviews": 4}, {"location_id": "1011044", "name": "Los Gallos Taqueria", "latitude": "37.06145", "longitude": "-122.00651", "rating": 4.1, "num_reviews": 27}]