[{"location_id": "10779930", "name": "Alopex Eco Adventures", "latitude": "37.808727", "longitude": "-122.40994", "rating": null, "num_reviews": null}, {"location_id": "1573951", "name": "San Francisco Whale Tours", "latitude": "37.808674", "longitude": "-122.409996", "rating": 4.5, "num_reviews": 2962}, {"location_id": "8391653", "name": "Hard Rock Cafe", "latitude": "37.808661", "longitude": "-122.409997", "rating": 3.3, "num_reviews": 194}, {"location_id": "12429062", "name": "Guardians of the Gate", "latitude": "37.808821", "longitude": "-122.410215", "rating": 4.0, "num_reviews": 13}, {"location_id": "6983823", "name": "Wilder West Urban Western Outfitters", "latitude": "37.808821", "longitude": "-122.410215", "rating": 2.8, "num_reviews": 6}, {"location_id": "14923431", "name": "Crab Sculpture", "latitude": "37.808821", "longitude": "-122.410215", "rating": 4.2, "num_reviews": 14}, {"location_id": "1163872", "name": "Adventure Cat Sailing Charters", "latitude": "37.808823", "longitude": "-122.41022", "rating": 4.9, "num_reviews": 1200}, {"location_id": "360236", "name": "Hard Rock Cafe", "latitude": "37.808618", "longitude": "-122.409994", "rating": 3.6, "num_reviews": 2117}, {"location_id": "4550126", "name": "Solve it! Think out of the box", "latitude": "37.80885", "longitude": "-122.41023", "rating": 4.4, "num_reviews": 14}, {"location_id": "199126", "name": "Kitty City", "latitude": "37.80885", "longitude": "-122.41023", "rating": null, "num_reviews": null}, {"location_id": "1010540", "name": "Tony n' Tina's Wedding", "latitude": "37.80885", "longitude": "-122.41023", "rating": 2.2, "num_reviews": 13}, {"location_id": "18962514", "name": "Houdini\u2019s Magic Shop", "latitude": "37.80885", "longitude": "-122.41023", "rating": 4.0, "num_reviews": 1}, {"location_id": "13424634", "name": "San Francisco Water Taxi", "latitude": "37.80885", "longitude": "-122.41023", "rating": 4.9, "num_reviews": 16}, {"location_id": "6912448", "name": "Biscoff Coffee Corner", "latitude": "37.808958", "longitude": "-122.41009", "rating": 4.1, "num_reviews": 115}, {"location_id": "446798", "name": "Eagle Cafe", "latitude": "37.808826", "longitude": "-122.410301", "rating": 4.0, "num_reviews": 1095}, {"location_id": "23154782", "name": "Emerald Lady Boat Ride", "latitude": "37.808674", "longitude": "-122.409821", "rating": null, "num_reviews": null}, {"location_id": "102779", "name": "Pier 39", "latitude": "37.808674", "longitude": "-122.409821", "rating": 4.2, "num_reviews": 23091}, {"location_id": "2284695", "name": "Candy Baron", "latitude": "37.80869", "longitude": "-122.40981", "rating": 4.3, "num_reviews": 62}, {"location_id": "2537751", "name": "Boudin Bakery & Cafe", "latitude": "37.808788", "longitude": "-122.409775", "rating": 4.1, "num_reviews": 2939}, {"location_id": "33158808", "name": "Lappert's Ice Cream San Francisco", "latitude": "37.808578", "longitude": "-122.409889", "rating": 4.2, "num_reviews": 6}]