[{"location_id": "15835389", "name": "forageSF", "latitude": "37.77211", "longitude": "-122.44346", "rating": 4.9, "num_reviews": 28}, {"location_id": "1517012", "name": "Nopalito", "latitude": "37.773461", "longitude": "-122.439046", "rating": 4.3, "num_reviews": 330}, {"location_id": "12691348", "name": "Rt Rotisserie", "latitude": "37.773049", "longitude": "-122.438992", "rating": 4.4, "num_reviews": 34}, {"location_id": "26925242", "name": "Falletti Foods", "latitude": "37.773335", "longitude": "-122.438972", "rating": 5.0, "num_reviews": 1}, {"location_id": "19087876", "name": "RT Rotisserie", "latitude": "37.773097", "longitude": "-122.438943", "rating": 4.5, "num_reviews": 4}, {"location_id": "537404", "name": "Oakside Cafe", "latitude": "37.772848", "longitude": "-122.438913", "rating": 4.4, "num_reviews": 14}, {"location_id": "25896903", "name": "Beluna Cafe", "latitude": "37.772835", "longitude": "-122.438914", "rating": 5.0, "num_reviews": 2}, {"location_id": "2581261", "name": "Peet's Coffee & Tea", "latitude": "37.773433", "longitude": "-122.438898", "rating": 4.3, "num_reviews": 19}, {"location_id": "34153154", "name": "Historic & Charming Victorian Home Sleeps 11", "latitude": "37.77101", "longitude": "-122.44228", "rating": null, "num_reviews": null}, {"location_id": "15347167", "name": "Spencer House", "latitude": "37.771115", "longitude": "-122.440111", "rating": 4.0, "num_reviews": 1}, {"location_id": "26968562", "name": "Native Daughters of the Golden West building by Morgan", "latitude": "37.775536", "longitude": "-122.441335", "rating": null, "num_reviews": null}, {"location_id": "14955545", "name": "Bowie/Lemmy/Prince Mural", "latitude": "37.77087", "longitude": "-122.44019", "rating": 4.0, "num_reviews": 1}, {"location_id": "15356570", "name": "Old firehouse station 21", "latitude": "37.7733", "longitude": "-122.43836", "rating": 3.0, "num_reviews": 1}, {"location_id": "4593586", "name": "Central Coffee Tea & Spice", "latitude": "37.774301", "longitude": "-122.444278", "rating": 4.2, "num_reviews": 5}, {"location_id": "27116134", "name": "Scarlet Fox Wine Bar", "latitude": "37.774392", "longitude": "-122.444245", "rating": null, "num_reviews": null}, {"location_id": "14762805", "name": "Buena Vista Terrace", "latitude": "37.77081", "longitude": "-122.44287", "rating": 4.0, "num_reviews": 2}, {"location_id": "14884407", "name": "Sarah Mish House", "latitude": "37.77274", "longitude": "-122.43823", "rating": 4.0, "num_reviews": 1}, {"location_id": "3510297", "name": "Panhandle - Golden Gate Park", "latitude": "37.772675", "longitude": "-122.44473", "rating": 4.1, "num_reviews": 64}, {"location_id": "20379773", "name": "Hahdough", "latitude": "37.773804", "longitude": "-122.43831", "rating": 5.0, "num_reviews": 2}, {"location_id": "15840939", "name": "1081 Haight Street Flatiron", "latitude": "37.77076", "longitude": "-122.43991", "rating": 4.0, "num_reviews": 2}]