[{"location_id": "2358119", "name": "Oceanic Society Farallon Islands Whale Watching", "latitude": "37.806206", "longitude": "-122.442146", "rating": 4.8, "num_reviews": 139}, {"location_id": "21109930", "name": "Marina Small Craft Harbor", "latitude": "37.8062", "longitude": "-122.44218", "rating": 5.0, "num_reviews": 2}, {"location_id": "27039486", "name": "Marina Green Park", "latitude": "37.8067", "longitude": "-122.439", "rating": 3.0, "num_reviews": 1}, {"location_id": "3426957", "name": "Sea Forager Tours", "latitude": "37.80782", "longitude": "-122.44247", "rating": 4.9, "num_reviews": 58}, {"location_id": "2016044", "name": "Sailing San Francisco", "latitude": "37.805752", "longitude": "-122.443689", "rating": 5.0, "num_reviews": 29}, {"location_id": "17736364", "name": "John Yelda", "latitude": "37.80564", "longitude": "-122.443761", "rating": 4.9, "num_reviews": 14}, {"location_id": "108027", "name": "The Wave Organ", "latitude": "37.80775", "longitude": "-122.443946", "rating": 3.5, "num_reviews": 120}, {"location_id": "108312", "name": "Marina District", "latitude": "37.804382", "longitude": "-122.436989", "rating": 4.4, "num_reviews": 143}, {"location_id": "10631933", "name": "Xtreme Xcursions", "latitude": "37.805779", "longitude": "-122.44489", "rating": 5.0, "num_reviews": 6}, {"location_id": "17573288", "name": "Bridge View House", "latitude": "37.80511", "longitude": "-122.44489", "rating": 5.0, "num_reviews": 1}, {"location_id": "26329157", "name": "Bay Area Cycling Tours", "latitude": "37.80345", "longitude": "-122.43694", "rating": null, "num_reviews": null}, {"location_id": "9709846", "name": "Limousine in San Francisco", "latitude": "37.80463", "longitude": "-122.43503", "rating": 4.6, "num_reviews": 19}, {"location_id": "545902", "name": "Marina Green", "latitude": "37.805458", "longitude": "-122.44673", "rating": 4.4, "num_reviews": 58}, {"location_id": "20866216", "name": "Dynamo Donut + Coffee", "latitude": "37.806542", "longitude": "-122.447255", "rating": null, "num_reviews": null}, {"location_id": "311683", "name": "Fort Mason Center", "latitude": "37.80504", "longitude": "-122.43371", "rating": 4.2, "num_reviews": 144}, {"location_id": "26717131", "name": "Boho Petite", "latitude": "37.800728", "longitude": "-122.438759", "rating": 4.5, "num_reviews": 2}, {"location_id": "3257130", "name": "Blackwood", "latitude": "37.80071", "longitude": "-122.438806", "rating": 4.4, "num_reviews": 254}, {"location_id": "4088391", "name": "Heritage Row", "latitude": "37.80064", "longitude": "-122.43917", "rating": 3.0, "num_reviews": 1}, {"location_id": "21145738", "name": "Cracked & Battered", "latitude": "37.800489", "longitude": "-122.440191", "rating": 5.0, "num_reviews": 3}, {"location_id": "17604781", "name": "Project Juice", "latitude": "37.80048", "longitude": "-122.44014", "rating": 4.5, "num_reviews": 2}]