[{"location_id": "265130", "name": "Kite Hill Open Space", "latitude": "37.758283", "longitude": "-122.441567", "rating": 4.5, "num_reviews": 2}, {"location_id": "4735597", "name": "Seward Street Slides", "latitude": "37.758206", "longitude": "-122.440375", "rating": 4.6, "num_reviews": 26}, {"location_id": "27070722", "name": "Seward Mini Park", "latitude": "37.7574", "longitude": "-122.44027", "rating": 3.0, "num_reviews": 1}, {"location_id": "27087456", "name": "Franklin Point", "latitude": "37.756751", "longitude": "-122.441356", "rating": 5.0, "num_reviews": 1}, {"location_id": "27005514", "name": "Eureka Valley Branch Library", "latitude": "37.757304", "longitude": "-122.439789", "rating": null, "num_reviews": null}, {"location_id": "2307200", "name": "California Nature Tours - Day Tours", "latitude": "37.75956", "longitude": "-122.43891", "rating": 5.0, "num_reviews": 3}, {"location_id": "4306593", "name": "Mission Food Tour -Day Tour", "latitude": "37.7581", "longitude": "-122.44439", "rating": 4.7, "num_reviews": 30}, {"location_id": "1165353", "name": "Saturn Steps", "latitude": "37.7608", "longitude": "-122.43999", "rating": 2.0, "num_reviews": 1}, {"location_id": "1165352", "name": "Vulcan Steps", "latitude": "37.7608", "longitude": "-122.43999", "rating": 3.8, "num_reviews": 5}, {"location_id": "25518625", "name": "Happy Moose Juice", "latitude": "37.760356", "longitude": "-122.444054", "rating": null, "num_reviews": null}, {"location_id": "21313275", "name": "Castro Luxury Rental", "latitude": "37.760001", "longitude": "-122.438299", "rating": null, "num_reviews": null}, {"location_id": "5966651", "name": "Mama Ji's", "latitude": "37.760767", "longitude": "-122.438717", "rating": 4.3, "num_reviews": 94}, {"location_id": "15032273", "name": "Neighbor's Corner", "latitude": "37.75559", "longitude": "-122.43865", "rating": 4.0, "num_reviews": 1}, {"location_id": "27064993", "name": "Al's Park", "latitude": "37.759575", "longitude": "-122.445467", "rating": null, "num_reviews": null}, {"location_id": "4593584", "name": "Five Star Truffles and Coffee", "latitude": "37.76058", "longitude": "-122.43693", "rating": 4.0, "num_reviews": 7}, {"location_id": "2653489", "name": "Takara Sushi", "latitude": "37.760647", "longitude": "-122.436872", "rating": 4.1, "num_reviews": 15}, {"location_id": "15276238", "name": "Spark Arts", "latitude": "37.76056", "longitude": "-122.43667", "rating": 5.0, "num_reviews": 1}, {"location_id": "33390684", "name": "Flora King", "latitude": "37.760928", "longitude": "-122.436953", "rating": 5.0, "num_reviews": 1}, {"location_id": "26260867", "name": "Vico Cavone", "latitude": "37.760939", "longitude": "-122.436948", "rating": null, "num_reviews": null}, {"location_id": "26925114", "name": "Eureka Market", "latitude": "37.762113", "longitude": "-122.438518", "rating": null, "num_reviews": null}]