[{"location_id": "2226900", "name": "John McLaren Park", "latitude": "37.719287", "longitude": "-122.418316", "rating": 3.8, "num_reviews": 6}, {"location_id": "15029803", "name": "Gleneagles GC at McLaren Park", "latitude": "37.715871", "longitude": "-122.424394", "rating": null, "num_reviews": null}, {"location_id": "3596902", "name": "BAPS Shri Swaminarayan Mandir", "latitude": "37.724636", "longitude": "-122.424272", "rating": null, "num_reviews": null}, {"location_id": "27054611", "name": "Herz Playground", "latitude": "37.713771", "longitude": "-122.416249", "rating": null, "num_reviews": null}, {"location_id": "27015010", "name": "Louis Sutter Playground", "latitude": "37.722627", "longitude": "-122.413691", "rating": null, "num_reviews": null}, {"location_id": "4627695", "name": "Don Chuys Mexi-Mercado", "latitude": "37.723949", "longitude": "-122.429084", "rating": 4.5, "num_reviews": 4}, {"location_id": "20224566", "name": "Safe, Quiet, 20min to most places in SF", "latitude": "37.71661", "longitude": "-122.43147", "rating": null, "num_reviews": null}, {"location_id": "26934728", "name": "Little Village Market", "latitude": "37.711982", "longitude": "-122.415887", "rating": null, "num_reviews": null}, {"location_id": "10766580", "name": "Dingo Tours", "latitude": "37.72747", "longitude": "-122.41664", "rating": 5.0, "num_reviews": 49}, {"location_id": "27085516", "name": "Excelsior Playground", "latitude": "37.720232", "longitude": "-122.433489", "rating": null, "num_reviews": null}, {"location_id": "26943333", "name": "Oxbridge Market", "latitude": "37.72891", "longitude": "-122.41968", "rating": null, "num_reviews": null}, {"location_id": "16666626", "name": "SanFranciscoabb", "latitude": "37.72729", "longitude": "-122.42926", "rating": 5.0, "num_reviews": 2}, {"location_id": "26920682", "name": "Hilda's Mart & Bake Shop", "latitude": "37.722549", "longitude": "-122.434486", "rating": null, "num_reviews": null}, {"location_id": "4944236", "name": "Los Reyes Restaurant", "latitude": "37.70873", "longitude": "-122.420728", "rating": 5.0, "num_reviews": 2}, {"location_id": "15169534", "name": "M & M Shortstop", "latitude": "37.70867", "longitude": "-122.42026", "rating": null, "num_reviews": null}, {"location_id": "615566", "name": "Cow Palace", "latitude": "37.70832", "longitude": "-122.42008", "rating": 3.2, "num_reviews": 34}, {"location_id": "26344358", "name": "The Haunt Ghost Tours", "latitude": "37.72994", "longitude": "-122.42568", "rating": 5.0, "num_reviews": 374}, {"location_id": "26259605", "name": "The Haunt Ghost Tours", "latitude": "37.72994", "longitude": "-122.42568", "rating": 5.0, "num_reviews": 245}, {"location_id": "291669", "name": "Alpine Inn & Suites", "latitude": "37.708439", "longitude": "-122.42495", "rating": 4.0, "num_reviews": 516}, {"location_id": "7313521", "name": "Eric's VIP Tours", "latitude": "37.730202", "longitude": "-122.418167", "rating": 5.0, "num_reviews": 157}]