[{"location_id": "27013856", "name": "Mary Ellen Pleasant Memorial Park", "latitude": "37.787632", "longitude": "-122.42694", "rating": null, "num_reviews": null}, {"location_id": "3381849", "name": "San Francisco Ghost Hunt Walking Tour", "latitude": "37.7875", "longitude": "-122.42721", "rating": 4.9, "num_reviews": 214}, {"location_id": "10376348", "name": "Hannah Sowd Skin Care", "latitude": "37.7875", "longitude": "-122.42721", "rating": null, "num_reviews": null}, {"location_id": "27026506", "name": "Reviving Touch", "latitude": "37.7875", "longitude": "-122.42721", "rating": null, "num_reviews": null}, {"location_id": "27060440", "name": "Asanda Pavlacka Integrative Health", "latitude": "37.78743", "longitude": "-122.427304", "rating": null, "num_reviews": null}, {"location_id": "7950201", "name": "Octavia", "latitude": "37.787968", "longitude": "-122.427071", "rating": 4.5, "num_reviews": 228}, {"location_id": "112360", "name": "Queen Anne Hotel", "latitude": "37.787209", "longitude": "-122.426598", "rating": 4.1, "num_reviews": 784}, {"location_id": "25287476", "name": "Chika & Sake", "latitude": "37.787498", "longitude": "-122.426193", "rating": null, "num_reviews": null}, {"location_id": "3571694", "name": "Kenmore Residence Club", "latitude": "37.787087", "longitude": "-122.426286", "rating": 3.7, "num_reviews": 44}, {"location_id": "531790", "name": "The Cafe Majestic", "latitude": "37.78724", "longitude": "-122.42543", "rating": 4.0, "num_reviews": 49}, {"location_id": "4564487", "name": "Butterfly Lounge", "latitude": "37.78724", "longitude": "-122.42543", "rating": 4.0, "num_reviews": 5}, {"location_id": "25163440", "name": "Chika Ohata", "latitude": "37.786869", "longitude": "-122.428207", "rating": null, "num_reviews": null}, {"location_id": "28126647", "name": "Sobakatsu", "latitude": "37.786869", "longitude": "-122.428207", "rating": null, "num_reviews": null}, {"location_id": "81416", "name": "The Hotel Majestic", "latitude": "37.787247", "longitude": "-122.425407", "rating": 3.7, "num_reviews": 830}, {"location_id": "557315", "name": "Konko Church of San Francisco", "latitude": "37.787326", "longitude": "-122.428693", "rating": 3.8, "num_reviews": 4}, {"location_id": "15462767", "name": "Trinity + St. Peter's Episcopal Church", "latitude": "37.78837", "longitude": "-122.42492", "rating": 4.2, "num_reviews": 5}, {"location_id": "13397151", "name": "Jan Massage", "latitude": "37.785885", "longitude": "-122.42847", "rating": 5.0, "num_reviews": 4}, {"location_id": "17615226", "name": "Daeho Korean BBQ & Beef Soup", "latitude": "37.785883", "longitude": "-122.428554", "rating": 4.5, "num_reviews": 4}, {"location_id": "14017766", "name": "Bay Jiu-Jitsu", "latitude": "37.785828", "longitude": "-122.428662", "rating": null, "num_reviews": null}, {"location_id": "4312089", "name": "Waraku", "latitude": "37.785889", "longitude": "-122.428787", "rating": 4.4, "num_reviews": 113}]