[{"location_id": "28098095", "name": "Wildflower", "latitude": "40.747952", "longitude": "-74.004391", "rating": null, "num_reviews": null}, {"location_id": "28076440", "name": "Wildflower", "latitude": "40.747993", "longitude": "-74.004372", "rating": null, "num_reviews": null}, {"location_id": "24940992", "name": "Fremin Gallery", "latitude": "40.747928", "longitude": "-74.005188", "rating": null, "num_reviews": null}, {"location_id": "27064659", "name": "Nicolas Auvray Gallery", "latitude": "40.74799", "longitude": "-74.005218", "rating": null, "num_reviews": null}, {"location_id": "27081947", "name": "Jim Kempner Fine Art", "latitude": "40.747947", "longitude": "-74.00426", "rating": null, "num_reviews": null}, {"location_id": "26493975", "name": "The Mermaid Inn - Chelsea", "latitude": "40.74813", "longitude": "-74.004196", "rating": 4.9, "num_reviews": 9}, {"location_id": "12670071", "name": "Taglialatella Galleries", "latitude": "40.748207", "longitude": "-74.004196", "rating": 4.7, "num_reviews": 6}, {"location_id": "27084816", "name": "Lisson Gallery", "latitude": "40.74855", "longitude": "-74.004474", "rating": null, "num_reviews": null}, {"location_id": "27016400", "name": "Asya Geisberg Gallery", "latitude": "40.748363", "longitude": "-74.005426", "rating": null, "num_reviews": null}, {"location_id": "283296", "name": "Portico Outlet", "latitude": "40.748206", "longitude": "-74.003989", "rating": 2.5, "num_reviews": 2}, {"location_id": "555462", "name": "Gladstone Gallery", "latitude": "40.748643", "longitude": "-74.004739", "rating": 5.0, "num_reviews": 2}, {"location_id": "27084376", "name": "Joanne Artman Gallery", "latitude": "40.747428", "longitude": "-74.005242", "rating": null, "num_reviews": null}, {"location_id": "8619226", "name": "Juban NYC", "latitude": "40.74731", "longitude": "-74.00467", "rating": 4.2, "num_reviews": 26}, {"location_id": "508621", "name": "Tia Pol", "latitude": "40.7473", "longitude": "-74.004728", "rating": 4.3, "num_reviews": 252}, {"location_id": "858033", "name": "New York Burger Co.", "latitude": "40.747451", "longitude": "-74.004117", "rating": 4.2, "num_reviews": 258}, {"location_id": "27084818", "name": "Detour Gallery", "latitude": "40.748444", "longitude": "-74.005542", "rating": null, "num_reviews": null}, {"location_id": "26838104", "name": "Yancey Richardson", "latitude": "40.7476", "longitude": "-74.00561", "rating": 1.0, "num_reviews": 1}, {"location_id": "27033385", "name": "Mucciaccia Gallery", "latitude": "40.748723", "longitude": "-74.005032", "rating": null, "num_reviews": null}, {"location_id": "3213679", "name": "Empire Diner", "latitude": "40.747221", "longitude": "-74.004601", "rating": 4.1, "num_reviews": 487}, {"location_id": "479192", "name": "Don Giovanni Ristorante", "latitude": "40.747318", "longitude": "-74.004196", "rating": 4.0, "num_reviews": 283}]