[{"location_id": "28172136", "name": "Canarsie Playground", "latitude": "40.627036", "longitude": "-73.899639", "rating": null, "num_reviews": null}, {"location_id": "28172184", "name": "Canarsie Park", "latitude": "40.627766", "longitude": "-73.895081", "rating": null, "num_reviews": null}, {"location_id": "19778017", "name": "At the Water's Edge in Canarsie", "latitude": "40.629248", "longitude": "-73.891571", "rating": null, "num_reviews": null}, {"location_id": "4835868", "name": "BossaNova", "latitude": "40.62221", "longitude": "-73.90377", "rating": null, "num_reviews": null}, {"location_id": "10413910", "name": "Strusser's Limousine Service", "latitude": "40.62235", "longitude": "-73.90425", "rating": 4.8, "num_reviews": 86}, {"location_id": "27081520", "name": "McGuire Fields", "latitude": "40.619825", "longitude": "-73.901499", "rating": null, "num_reviews": null}, {"location_id": "5047135", "name": "Il Posto Restaurant", "latitude": "40.621484", "longitude": "-73.905143", "rating": 4.4, "num_reviews": 17}, {"location_id": "23857657", "name": "Hebrew Educational Society", "latitude": "40.63265", "longitude": "-73.89106", "rating": null, "num_reviews": null}, {"location_id": "34032988", "name": "Ave n", "latitude": "40.63422", "longitude": "-73.89379", "rating": null, "num_reviews": null}, {"location_id": "17832401", "name": "Dunkin'", "latitude": "40.631786", "longitude": "-73.888402", "rating": null, "num_reviews": null}, {"location_id": "21215541", "name": "Popeyes Louisiana Kitchen", "latitude": "40.631985", "longitude": "-73.888588", "rating": null, "num_reviews": null}, {"location_id": "4797872", "name": "Rockaway Donuts", "latitude": "40.6315", "longitude": "-73.88798", "rating": 4.0, "num_reviews": 1}, {"location_id": "27749530", "name": "Teriyaki Bowl", "latitude": "40.632734", "longitude": "-73.889584", "rating": null, "num_reviews": null}, {"location_id": "28205885", "name": "Domino's Pizza", "latitude": "40.632729", "longitude": "-73.889435", "rating": null, "num_reviews": null}, {"location_id": "26894173", "name": "Key Food", "latitude": "40.632464", "longitude": "-73.888871", "rating": null, "num_reviews": null}, {"location_id": "15254674", "name": "McDonald's", "latitude": "40.63311", "longitude": "-73.889848", "rating": 4.0, "num_reviews": 1}, {"location_id": "4678006", "name": "Wilkens II Deli", "latitude": "40.61999", "longitude": "-73.90695", "rating": 5.0, "num_reviews": 2}, {"location_id": "27750934", "name": "Bergen Beach Cafe", "latitude": "40.619932", "longitude": "-73.906976", "rating": null, "num_reviews": null}, {"location_id": "33107682", "name": "Chabad Center For Russian Speakers", "latitude": "40.619101", "longitude": "-73.906399", "rating": null, "num_reviews": null}, {"location_id": "27345785", "name": "Highly Grounded Cafe", "latitude": "40.619518", "longitude": "-73.907488", "rating": null, "num_reviews": null}]