[{"location_id": "480494", "name": "Golden Star Vietnamese Restaurant", "latitude": "37.795262", "longitude": "-122.405697", "rating": 3.9, "num_reviews": 90}, {"location_id": "26943341", "name": "Yu's Cafe", "latitude": "37.795022", "longitude": "-122.405915", "rating": null, "num_reviews": null}, {"location_id": "25481947", "name": "Yu'sCafe", "latitude": "37.795022", "longitude": "-122.405915", "rating": null, "num_reviews": null}, {"location_id": "7751526", "name": "Portsmouth Square", "latitude": "37.794805", "longitude": "-122.405558", "rating": 3.9, "num_reviews": 55}, {"location_id": "360163", "name": "City View Restaurant", "latitude": "37.794895", "longitude": "-122.405945", "rating": 4.3, "num_reviews": 571}, {"location_id": "532631", "name": "Chinatown Restaurant", "latitude": "37.795294", "longitude": "-122.405957", "rating": 2.7, "num_reviews": 470}, {"location_id": "524598", "name": "J&M A-1 Cafe Restaurant", "latitude": "37.794943", "longitude": "-122.405997", "rating": 3.3, "num_reviews": 20}, {"location_id": "557311", "name": "Buddha's Universal Church", "latitude": "37.795409", "longitude": "-122.405349", "rating": 3.0, "num_reviews": 3}, {"location_id": "7901215", "name": "Drag Me Along Tours", "latitude": "37.79491", "longitude": "-122.40514", "rating": 4.8, "num_reviews": 4}, {"location_id": "4508800", "name": "Chinatown Alleyway Tours", "latitude": "37.79491", "longitude": "-122.40514", "rating": 4.9, "num_reviews": 48}, {"location_id": "26934285", "name": "Beijing 49er", "latitude": "37.79539", "longitude": "-122.40598", "rating": 2.5, "num_reviews": 2}, {"location_id": "1531738", "name": "Grant Place Restaurant", "latitude": "37.79511", "longitude": "-122.406168", "rating": 3.2, "num_reviews": 132}, {"location_id": "15131983", "name": "Goddess of Democracy", "latitude": "37.79476", "longitude": "-122.40518", "rating": 4.0, "num_reviews": 2}, {"location_id": "15841027", "name": "Tot park", "latitude": "37.79476", "longitude": "-122.40518", "rating": 4.0, "num_reviews": 1}, {"location_id": "27841560", "name": "Hotpot Champ", "latitude": "37.795455", "longitude": "-122.405155", "rating": null, "num_reviews": null}, {"location_id": "12374007", "name": "Bank of Canton", "latitude": "37.79507", "longitude": "-122.40624", "rating": 4.3, "num_reviews": 4}, {"location_id": "26941494", "name": "Char Ming Sun Market", "latitude": "37.794795", "longitude": "-122.406122", "rating": null, "num_reviews": null}, {"location_id": "15149708", "name": "Maggie\u2019s Cafe", "latitude": "37.794998", "longitude": "-122.406264", "rating": 2.7, "num_reviews": 7}, {"location_id": "531674", "name": "Bow Hon", "latitude": "37.794966", "longitude": "-122.406277", "rating": 3.5, "num_reviews": 83}, {"location_id": "16747249", "name": "Adventurous \u2013 Immersive Storytelling Adventures", "latitude": "37.794502", "longitude": "-122.405448", "rating": null, "num_reviews": null}]