[{"location_id": "27531788", "name": "Levitate Adventure Park", "latitude": "35.224816", "longitude": "-111.578701", "rating": null, "num_reviews": null}, {"location_id": "4937670", "name": "Starbucks", "latitude": "35.225836", "longitude": "-111.578736", "rating": 3.7, "num_reviews": 12}, {"location_id": "25217673", "name": "Lucy's Burgers", "latitude": "35.223566", "longitude": "-111.580383", "rating": 3.5, "num_reviews": 2}, {"location_id": "10626380", "name": "La Placita Express", "latitude": "35.223739", "longitude": "-111.580642", "rating": 3.8, "num_reviews": 6}, {"location_id": "335838", "name": "Flaming Wok", "latitude": "35.223706", "longitude": "-111.580623", "rating": 3.8, "num_reviews": 8}, {"location_id": "4399130", "name": "McDonald's", "latitude": "35.226549", "longitude": "-111.579831", "rating": 2.7, "num_reviews": 26}, {"location_id": "27039118", "name": "Easy Relax", "latitude": "35.223825", "longitude": "-111.581036", "rating": null, "num_reviews": null}, {"location_id": "10045828", "name": "Flagstaff Mall", "latitude": "35.223439", "longitude": "-111.580956", "rating": 3.5, "num_reviews": 20}, {"location_id": "19673990", "name": "Harkins Theatres", "latitude": "35.22293", "longitude": "-111.57711", "rating": null, "num_reviews": null}, {"location_id": "26952707", "name": "Acapulco Tropical", "latitude": "35.22321", "longitude": "-111.581313", "rating": null, "num_reviews": null}, {"location_id": "11914437", "name": "Harkins Theatres Flagstaff 16", "latitude": "35.222714", "longitude": "-111.577122", "rating": 4.3, "num_reviews": 21}, {"location_id": "26870598", "name": "Auntie Anne's", "latitude": "35.223098", "longitude": "-111.581281", "rating": null, "num_reviews": null}, {"location_id": "27049077", "name": "Dillard's", "latitude": "35.222794", "longitude": "-111.581076", "rating": null, "num_reviews": null}, {"location_id": "13206768", "name": "Xcape Flagstaff", "latitude": "35.223267", "longitude": "-111.581902", "rating": 4.3, "num_reviews": 7}, {"location_id": "8414456", "name": "Fatman's Loop Trail", "latitude": "35.228019", "longitude": "-111.579964", "rating": 4.2, "num_reviews": 61}, {"location_id": "10761316", "name": "Top of the Mountain Gourmet Coffee and Milkshakes", "latitude": "35.225033", "longitude": "-111.58295", "rating": 5.0, "num_reviews": 3}, {"location_id": "4616091", "name": "Del Taco", "latitude": "35.224899", "longitude": "-111.583112", "rating": 3.2, "num_reviews": 54}, {"location_id": "33278689", "name": "Planet Fitness", "latitude": "35.222789", "longitude": "-111.582316", "rating": null, "num_reviews": null}, {"location_id": "4465645", "name": "Wendy's", "latitude": "35.224494", "longitude": "-111.583772", "rating": 3.2, "num_reviews": 30}, {"location_id": "27066041", "name": "JCPenney", "latitude": "35.222434", "longitude": "-111.582847", "rating": null, "num_reviews": null}]