[{"location_id": "934097", "name": "Starbucks 3rd St", "latitude": "37.787315", "longitude": "-122.403384", "rating": 3.8, "num_reviews": 73}, {"location_id": "5835101", "name": "Dave's Bar", "latitude": "37.78726", "longitude": "-122.4032", "rating": 4.5, "num_reviews": 11}, {"location_id": "16819300", "name": "Oasis Grill", "latitude": "37.787147", "longitude": "-122.403764", "rating": 4.5, "num_reviews": 13}, {"location_id": "5846826", "name": "Local Edition", "latitude": "37.787604", "longitude": "-122.403388", "rating": 4.1, "num_reviews": 19}, {"location_id": "26880923", "name": "Kona's Street Market", "latitude": "37.787029", "longitude": "-122.403252", "rating": null, "num_reviews": null}, {"location_id": "7380626", "name": "Mazarine Coffee", "latitude": "37.7875", "longitude": "-122.403967", "rating": 4.5, "num_reviews": 178}, {"location_id": "10179694", "name": "The Lark", "latitude": "37.787254", "longitude": "-122.403038", "rating": 4.3, "num_reviews": 18}, {"location_id": "3803815", "name": "Local Edition", "latitude": "37.787617", "longitude": "-122.403147", "rating": 4.1, "num_reviews": 84}, {"location_id": "27071987", "name": "POPO (Public Rooftop Garden)", "latitude": "37.787701", "longitude": "-122.403821", "rating": null, "num_reviews": null}, {"location_id": "19866514", "name": "Igor Vayner's Solved Mysteries Pastry", "latitude": "37.786949", "longitude": "-122.404007", "rating": null, "num_reviews": null}, {"location_id": "533186", "name": "Super Duper Burgers", "latitude": "37.786854", "longitude": "-122.403968", "rating": 4.4, "num_reviews": 1717}, {"location_id": "34109409", "name": "Junbi Matcha & Tea", "latitude": "37.787744", "longitude": "-122.402953", "rating": null, "num_reviews": null}, {"location_id": "28169928", "name": "One Kearny Rooftop", "latitude": "37.787789", "longitude": "-122.404038", "rating": null, "num_reviews": null}, {"location_id": "7916955", "name": "Reboot Modern Meditation", "latitude": "37.7874", "longitude": "-122.40434", "rating": null, "num_reviews": null}, {"location_id": "532381", "name": "Catharine Clark Gallery", "latitude": "37.7874", "longitude": "-122.40434", "rating": 5.0, "num_reviews": 1}, {"location_id": "28169902", "name": "K. Imperial Fine Art", "latitude": "37.787517", "longitude": "-122.404331", "rating": null, "num_reviews": null}, {"location_id": "13324630", "name": "Bluestone Lane Union Square Coffee Shop", "latitude": "37.787813", "longitude": "-122.402913", "rating": 4.1, "num_reviews": 23}, {"location_id": "532430", "name": "Fraenkel Gallery", "latitude": "37.787693", "longitude": "-122.404263", "rating": null, "num_reviews": null}, {"location_id": "1924802", "name": "California Pizza Kitchen", "latitude": "37.786919", "longitude": "-122.402679", "rating": 3.9, "num_reviews": 352}, {"location_id": "26952728", "name": "Cafe Dolci", "latitude": "37.7871", "longitude": "-122.404501", "rating": 5.0, "num_reviews": 1}]