[{"location_id": "12793266", "name": "Fog City News", "latitude": "37.791035", "longitude": "-122.398827", "rating": 5.0, "num_reviews": 41}, {"location_id": "144425", "name": "The Mechanics Monument", "latitude": "37.791278", "longitude": "-122.399218", "rating": 3.8, "num_reviews": 24}, {"location_id": "3652592", "name": "Chipotle Mexican Grill", "latitude": "37.790439", "longitude": "-122.399442", "rating": 3.8, "num_reviews": 13}, {"location_id": "15215421", "name": "The Melt", "latitude": "37.790792", "longitude": "-122.398454", "rating": 3.8, "num_reviews": 15}, {"location_id": "19749547", "name": "The Organic Coup", "latitude": "37.790791", "longitude": "-122.398453", "rating": 5.0, "num_reviews": 1}, {"location_id": "34021094", "name": "MOMO noodle", "latitude": "37.790675", "longitude": "-122.398432", "rating": null, "num_reviews": null}, {"location_id": "26959912", "name": "Work and Travel China", "latitude": "37.791191", "longitude": "-122.398366", "rating": null, "num_reviews": null}, {"location_id": "13811171", "name": "Jamba Juice", "latitude": "37.79158", "longitude": "-122.39936", "rating": 4.0, "num_reviews": 4}, {"location_id": "7824395", "name": "The Associates", "latitude": "37.79158", "longitude": "-122.39937", "rating": 4.3, "num_reviews": 10}, {"location_id": "19736298", "name": "Una Mas", "latitude": "37.791042", "longitude": "-122.400047", "rating": null, "num_reviews": null}, {"location_id": "8645748", "name": "Philz Coffee", "latitude": "37.791651", "longitude": "-122.399157", "rating": 4.4, "num_reviews": 52}, {"location_id": "6563884", "name": "Noah's NY Bagels", "latitude": "37.791463", "longitude": "-122.399837", "rating": 3.4, "num_reviews": 28}, {"location_id": "3652429", "name": "Happy Donut", "latitude": "37.791561", "longitude": "-122.399799", "rating": 4.7, "num_reviews": 3}, {"location_id": "21065154", "name": "Coast Poke Counter", "latitude": "37.79175", "longitude": "-122.39938", "rating": null, "num_reviews": null}, {"location_id": "156442", "name": "Fitness Break", "latitude": "37.79176", "longitude": "-122.3989", "rating": 5.0, "num_reviews": 1}, {"location_id": "21282534", "name": "kingtutchariottours", "latitude": "37.79156", "longitude": "-122.39996", "rating": 3.9, "num_reviews": 12}, {"location_id": "14927415", "name": "Golden Triangle Light Standards", "latitude": "37.7903", "longitude": "-122.40014", "rating": 3.0, "num_reviews": 1}, {"location_id": "20952519", "name": "Ruru Kitchen", "latitude": "37.790577", "longitude": "-122.400337", "rating": null, "num_reviews": null}, {"location_id": "27048082", "name": "Varnish Fine Art", "latitude": "37.789931", "longitude": "-122.398942", "rating": null, "num_reviews": null}, {"location_id": "360106", "name": "Yank Sing - Stevenson St.", "latitude": "37.789866", "longitude": "-122.399329", "rating": 4.3, "num_reviews": 962}]