[{"location_id": "2322216", "name": "Brooklyn Bridge Park", "latitude": "40.702244", "longitude": "-73.995857", "rating": 4.7, "num_reviews": 3373}, {"location_id": "24983614", "name": "Oneyogahouse", "latitude": "40.701757", "longitude": "-73.9958", "rating": null, "num_reviews": null}, {"location_id": "15607841", "name": "1 Rooftop Garden and Bar", "latitude": "40.70224", "longitude": "-73.99554", "rating": 4.0, "num_reviews": 2}, {"location_id": "13151704", "name": "Bamford Wellness Spa", "latitude": "40.702297", "longitude": "-73.995524", "rating": 4.3, "num_reviews": 11}, {"location_id": "33538044", "name": "Barbuto Brooklyn", "latitude": "40.702321", "longitude": "-73.995514", "rating": 5.0, "num_reviews": 145}, {"location_id": "12557706", "name": "Neighbors", "latitude": "40.702322", "longitude": "-73.995509", "rating": 4.1, "num_reviews": 44}, {"location_id": "33441848", "name": "Summer Garden", "latitude": "40.702311", "longitude": "-73.995488", "rating": null, "num_reviews": null}, {"location_id": "16843992", "name": "Harriet's Rooftop", "latitude": "40.702328", "longitude": "-73.995483", "rating": 4.6, "num_reviews": 577}, {"location_id": "10421761", "name": "1 Hotel Brooklyn Bridge", "latitude": "40.702213", "longitude": "-73.995354", "rating": 4.5, "num_reviews": 2122}, {"location_id": "1217468", "name": "Brooklyn Social", "latitude": "40.702464", "longitude": "-73.995422", "rating": 5.0, "num_reviews": 1}, {"location_id": "25314507", "name": "Bamford Wellness Spa", "latitude": "40.702915", "longitude": "-73.995438", "rating": 4.3, "num_reviews": 4}, {"location_id": "33666753", "name": "Breads Bakery - Brooklyn", "latitude": "40.702852", "longitude": "-73.995263", "rating": null, "num_reviews": null}, {"location_id": "33263669", "name": "Breads Bakery", "latitude": "40.702531", "longitude": "-73.994997", "rating": 5.0, "num_reviews": 1}, {"location_id": "7235863", "name": "Lizzmonade", "latitude": "40.703086", "longitude": "-73.995239", "rating": 4.5, "num_reviews": 32}, {"location_id": "1153262", "name": "Brooklyn Ice Cream Factory", "latitude": "40.702686", "longitude": "-73.994736", "rating": 4.2, "num_reviews": 1049}, {"location_id": "10136953", "name": "Watchtower", "latitude": "40.70194", "longitude": "-73.99445", "rating": 4.4, "num_reviews": 10}, {"location_id": "27053353", "name": "Hillside Dog Park", "latitude": "40.70158", "longitude": "-73.994386", "rating": null, "num_reviews": null}, {"location_id": "29026507", "name": "Arabica Dumbo", "latitude": "40.702531", "longitude": "-73.994105", "rating": null, "num_reviews": null}, {"location_id": "25153189", "name": "% Arabica Usa", "latitude": "40.702591", "longitude": "-73.994087", "rating": 4.6, "num_reviews": 14}, {"location_id": "1071953", "name": "The Telectroscope", "latitude": "40.702608", "longitude": "-73.994008", "rating": null, "num_reviews": null}]