[{"location_id": "10122549", "name": "Golden Gate View Point", "latitude": "37.83222", "longitude": "-122.48797", "rating": 4.7, "num_reviews": 178}, {"location_id": "2440554", "name": "Hendrik Point", "latitude": "37.827533", "longitude": "-122.481738", "rating": 4.7, "num_reviews": 35}, {"location_id": "106745", "name": "San Francisco Bay", "latitude": "37.827598", "longitude": "-122.481594", "rating": 4.7, "num_reviews": 7360}, {"location_id": "103182", "name": "Marin Headlands", "latitude": "37.826172", "longitude": "-122.499702", "rating": 4.8, "num_reviews": 1894}, {"location_id": "7717211", "name": "Vista Point", "latitude": "37.832767", "longitude": "-122.480186", "rating": 4.6, "num_reviews": 789}, {"location_id": "104675", "name": "Golden Gate Bridge", "latitude": "37.820026", "longitude": "-122.478592", "rating": 4.7, "num_reviews": 49967}, {"location_id": "3218297", "name": "Golden Gate Bridge Tours", "latitude": "37.8183", "longitude": "-122.47846", "rating": 4.8, "num_reviews": 71}, {"location_id": "17723621", "name": "Crissy Field Marsh", "latitude": "37.8183", "longitude": "-122.47846", "rating": 4.0, "num_reviews": 2}, {"location_id": "26306405", "name": "Universal Studio Productions", "latitude": "37.8183", "longitude": "-122.47846", "rating": null, "num_reviews": null}]