[{"location_id": "7187448", "name": "Charles Memorial Park", "latitude": "40.65003", "longitude": "-73.83253", "rating": 3.8, "num_reviews": 14}, {"location_id": "27078778", "name": "Hamilton Park", "latitude": "40.650017", "longitude": "-73.828237", "rating": null, "num_reviews": null}, {"location_id": "17354011", "name": "EagleRider Motorcycle Rentals and Tours", "latitude": "40.65063", "longitude": "-73.83729", "rating": null, "num_reviews": null}, {"location_id": "6536729", "name": "Frenasia", "latitude": "40.65132", "longitude": "-73.83747", "rating": 4.1, "num_reviews": 31}, {"location_id": "1484575", "name": "Surfside 3 Motel", "latitude": "40.64997", "longitude": "-73.83714", "rating": 3.6, "num_reviews": 91}, {"location_id": "28910892", "name": "Vetro Restaurant And Lounge", "latitude": "40.649355", "longitude": "-73.837152", "rating": 5.0, "num_reviews": 1}, {"location_id": "1986917", "name": "Vetro by Russo's on the Bay", "latitude": "40.649315", "longitude": "-73.837261", "rating": 4.6, "num_reviews": 152}, {"location_id": "13330788", "name": "DiVino Pizzeria Restaurant", "latitude": "40.650643", "longitude": "-73.838047", "rating": 4.5, "num_reviews": 11}, {"location_id": "4720041", "name": "That's a Wrap Restaurant Bar", "latitude": "40.65214", "longitude": "-73.83829", "rating": 3.8, "num_reviews": 6}, {"location_id": "25426764", "name": "Baya Bar - Acai & Smoothie Shop", "latitude": "40.649983", "longitude": "-73.83797", "rating": null, "num_reviews": null}, {"location_id": "27924860", "name": "Nana's", "latitude": "40.649907", "longitude": "-73.838004", "rating": null, "num_reviews": null}, {"location_id": "4628184", "name": "Carvel", "latitude": "40.65197", "longitude": "-73.838417", "rating": 5.0, "num_reviews": 5}, {"location_id": "26921748", "name": "Carvel Ice Cream", "latitude": "40.651971", "longitude": "-73.83842", "rating": null, "num_reviews": null}, {"location_id": "15163161", "name": "Asian Cafe", "latitude": "40.65338", "longitude": "-73.83829", "rating": null, "num_reviews": null}, {"location_id": "8792300", "name": "Howard Beach Bagel Cafe", "latitude": "40.652574", "longitude": "-73.838571", "rating": 3.8, "num_reviews": 18}, {"location_id": "18897984", "name": "Dunkin'", "latitude": "40.652157", "longitude": "-73.838699", "rating": null, "num_reviews": null}, {"location_id": "4618421", "name": "Old Country Bagel", "latitude": "40.6536", "longitude": "-73.83866", "rating": 4.0, "num_reviews": 2}, {"location_id": "810662", "name": "Prima Pasta and Cafe", "latitude": "40.6544", "longitude": "-73.839067", "rating": 4.2, "num_reviews": 55}, {"location_id": "2005325", "name": "Saffron Restaurant", "latitude": "40.65439", "longitude": "-73.83925", "rating": 4.3, "num_reviews": 50}, {"location_id": "4355165", "name": "Burger King", "latitude": "40.654422", "longitude": "-73.839247", "rating": 2.5, "num_reviews": 8}]