[{"location_id": "10619525", "name": "San Jose Brew Bike", "latitude": "37.332134", "longitude": "-121.890015", "rating": 4.4, "num_reviews": 13}, {"location_id": "26263649", "name": "San Jose Treasure Hunt", "latitude": "37.332486", "longitude": "-121.889842", "rating": null, "num_reviews": null}, {"location_id": "25545289", "name": "Bowls & Breads", "latitude": "37.332326", "longitude": "-121.889217", "rating": null, "num_reviews": null}, {"location_id": "23106571", "name": "Operation City Quest Scavenger Hunts", "latitude": "37.332547", "longitude": "-121.889158", "rating": null, "num_reviews": null}, {"location_id": "102384", "name": "The Tech Interactive", "latitude": "37.331501", "longitude": "-121.890236", "rating": 4.2, "num_reviews": 970}, {"location_id": "12709695", "name": "The Hackworth IMAX Dome Theater", "latitude": "37.33148", "longitude": "-121.8902", "rating": 4.3, "num_reviews": 3}, {"location_id": "347385", "name": "The Grill on the Alley", "latitude": "37.332636", "longitude": "-121.88912", "rating": 4.1, "num_reviews": 337}, {"location_id": "25477234", "name": "Totally Cheesy Melts & Macs", "latitude": "37.332643", "longitude": "-121.88912", "rating": null, "num_reviews": null}, {"location_id": "23820757", "name": "Signia by Hilton San Jose", "latitude": "37.332954", "longitude": "-121.889496", "rating": 3.6, "num_reviews": 132}, {"location_id": "814736", "name": "Morton's The Steakhouse", "latitude": "37.331884", "longitude": "-121.890921", "rating": 4.0, "num_reviews": 242}, {"location_id": "5101425", "name": "Bijan Bakery and Cafe", "latitude": "37.332659", "longitude": "-121.889002", "rating": 4.1, "num_reviews": 166}, {"location_id": "11878754", "name": "Cozymeal", "latitude": "37.331694", "longitude": "-121.891247", "rating": 5.0, "num_reviews": 3}, {"location_id": "25546085", "name": "Burger Academy", "latitude": "37.333038", "longitude": "-121.888895", "rating": null, "num_reviews": null}, {"location_id": "23678332", "name": "Morton's The Steakhouse - San Jose", "latitude": "37.33333", "longitude": "-121.88929", "rating": 2.8, "num_reviews": 6}, {"location_id": "34436492", "name": "Paradise Touch Spa", "latitude": "37.333058", "longitude": "-121.888797", "rating": null, "num_reviews": null}, {"location_id": "27178378", "name": "The Grill on the Alley", "latitude": "37.333058", "longitude": "-121.888797", "rating": null, "num_reviews": null}, {"location_id": "9560356", "name": "Montgomery Theater", "latitude": "37.33096", "longitude": "-121.88946", "rating": 4.4, "num_reviews": 14}, {"location_id": "24178231", "name": "AJI Bar & Robata", "latitude": "37.333101", "longitude": "-121.888728", "rating": null, "num_reviews": null}, {"location_id": "493243", "name": "Fountain Restaurant", "latitude": "37.333144", "longitude": "-121.88872", "rating": 3.8, "num_reviews": 78}, {"location_id": "324321", "name": "Four Points by Sheraton San Jose Downtown", "latitude": "37.332123", "longitude": "-121.888193", "rating": 3.9, "num_reviews": 824}]