[{"location_id": "34339349", "name": "Admiral David Glasgow Farragut Monument", "latitude": "40.742711", "longitude": "-73.987523", "rating": 5.0, "num_reviews": 1}, {"location_id": "106183", "name": "Sony Wonder Technology Lab", "latitude": "40.74208", "longitude": "-73.987291", "rating": 3.7, "num_reviews": 210}, {"location_id": "34339352", "name": "Chester Alan Arthur Monument", "latitude": "40.74281", "longitude": "-73.987069", "rating": 4.0, "num_reviews": 1}, {"location_id": "8666088", "name": "Blackbarn", "latitude": "40.742898", "longitude": "-73.987148", "rating": 4.2, "num_reviews": 280}, {"location_id": "27089735", "name": "Daum Art & Sculpture Showroom", "latitude": "40.74254", "longitude": "-73.986736", "rating": null, "num_reviews": null}, {"location_id": "24104174", "name": "Shake Shack Madison Square Park", "latitude": "40.742189", "longitude": "-73.987991", "rating": 4.7, "num_reviews": 32}, {"location_id": "14052370", "name": "Transferlimo", "latitude": "40.74193", "longitude": "-73.98703", "rating": 3.3, "num_reviews": 7}, {"location_id": "32834274", "name": "Clemente Bar", "latitude": "40.741783", "longitude": "-73.987167", "rating": 5.0, "num_reviews": 4}, {"location_id": "17832152", "name": "Joe Coffee Company", "latitude": "40.742992", "longitude": "-73.986834", "rating": null, "num_reviews": null}, {"location_id": "23828547", "name": "Tony's Deli", "latitude": "40.741764", "longitude": "-73.987017", "rating": null, "num_reviews": null}, {"location_id": "501513", "name": "Madison Square Park", "latitude": "40.741693", "longitude": "-73.987196", "rating": 4.4, "num_reviews": 765}, {"location_id": "479020", "name": "Eleven Madison Park", "latitude": "40.741673", "longitude": "-73.987343", "rating": 4.4, "num_reviews": 2782}, {"location_id": "25232443", "name": "Mark's Off Madison", "latitude": "40.742328", "longitude": "-73.986264", "rating": 3.6, "num_reviews": 19}, {"location_id": "32849680", "name": "Clemente Bar", "latitude": "40.741651", "longitude": "-73.986819", "rating": null, "num_reviews": null}, {"location_id": "15248848", "name": "Bluestone Lane Midtown East Coffee Shop", "latitude": "40.741534", "longitude": "-73.987035", "rating": 5.0, "num_reviews": 2}, {"location_id": "34339345", "name": "Madison Square Fountain", "latitude": "40.741728", "longitude": "-73.988301", "rating": 5.0, "num_reviews": 1}, {"location_id": "33090899", "name": "Momath", "latitude": "40.743351", "longitude": "-73.988052", "rating": 5.0, "num_reviews": 1}, {"location_id": "17729583", "name": "Sundays NoMad Studio", "latitude": "40.741963", "longitude": "-73.986154", "rating": 4.0, "num_reviews": 4}, {"location_id": "34156680", "name": "Eternal Light Flagstaff", "latitude": "40.742051", "longitude": "-73.988722", "rating": 4.5, "num_reviews": 2}, {"location_id": "9996377", "name": "Essen Slow Fast Food", "latitude": "40.74326", "longitude": "-73.98642", "rating": 4.1, "num_reviews": 26}]