[{"location_id": "23869810", "name": "Camp Maritime", "latitude": "40.58793", "longitude": "-73.8988", "rating": 3.5, "num_reviews": 2}, {"location_id": "23872748", "name": "Water Adventures & Experiences", "latitude": "40.58793", "longitude": "-73.8988", "rating": null, "num_reviews": null}, {"location_id": "17703656", "name": "Aviator Sports and Events Center", "latitude": "40.588176", "longitude": "-73.898308", "rating": 2.0, "num_reviews": 1}, {"location_id": "33874909", "name": "Green Meadows Farm (Brooklyn)", "latitude": "40.589654", "longitude": "-73.899052", "rating": null, "num_reviews": null}, {"location_id": "3783525", "name": "Aviator Sports and Events Center", "latitude": "40.589679", "longitude": "-73.899024", "rating": 4.1, "num_reviews": 18}, {"location_id": "28172606", "name": "Aviator Golf Center", "latitude": "40.590139", "longitude": "-73.901412", "rating": null, "num_reviews": null}, {"location_id": "17624955", "name": "Glass Bottle Beach", "latitude": "40.58364", "longitude": "-73.89379", "rating": 4.5, "num_reviews": 2}, {"location_id": "33877687", "name": "Green Meadows Farm", "latitude": "40.591999", "longitude": "-73.898773", "rating": null, "num_reviews": null}, {"location_id": "105810", "name": "Floyd Bennett Field - Gateway National Recreation Area", "latitude": "40.58717", "longitude": "-73.89231", "rating": 3.4, "num_reviews": 38}, {"location_id": "18742772", "name": "Dunkin'", "latitude": "40.59251", "longitude": "-73.908195", "rating": null, "num_reviews": null}]