[{"location_id": "14766117", "name": "Winding Stairway", "latitude": "37.77072", "longitude": "-122.43926", "rating": 3.0, "num_reviews": 1}, {"location_id": "15840939", "name": "1081 Haight Street Flatiron", "latitude": "37.77076", "longitude": "-122.43991", "rating": 4.0, "num_reviews": 2}, {"location_id": "14955545", "name": "Bowie/Lemmy/Prince Mural", "latitude": "37.77087", "longitude": "-122.44019", "rating": 4.0, "num_reviews": 1}, {"location_id": "15347167", "name": "Spencer House", "latitude": "37.771115", "longitude": "-122.440111", "rating": 4.0, "num_reviews": 1}, {"location_id": "265128", "name": "Buena Vista Park", "latitude": "37.76868", "longitude": "-122.44124", "rating": 4.2, "num_reviews": 86}, {"location_id": "27896854", "name": "Ken", "latitude": "37.771477", "longitude": "-122.436917", "rating": null, "num_reviews": null}, {"location_id": "20411224", "name": "Tea & Others", "latitude": "37.771435", "longitude": "-122.436867", "rating": null, "num_reviews": null}, {"location_id": "11658696", "name": "Powder", "latitude": "37.771591", "longitude": "-122.436965", "rating": 4.4, "num_reviews": 26}, {"location_id": "23414191", "name": "Q's Sandwich Shop", "latitude": "37.77152", "longitude": "-122.43688", "rating": 4.5, "num_reviews": 2}, {"location_id": "5104552", "name": "Bus Stop Pizza", "latitude": "37.771541", "longitude": "-122.436879", "rating": 5.0, "num_reviews": 1}, {"location_id": "26832671", "name": "Souvenir Coffee", "latitude": "37.771629", "longitude": "-122.436986", "rating": 4.5, "num_reviews": 2}, {"location_id": "32842348", "name": "Gigi's", "latitude": "37.772095", "longitude": "-122.437378", "rating": null, "num_reviews": null}, {"location_id": "15356514", "name": "Charles L. Hinkel House", "latitude": "37.77182", "longitude": "-122.43677", "rating": 4.0, "num_reviews": 1}, {"location_id": "2413212", "name": "The Little Chihuahua", "latitude": "37.772047", "longitude": "-122.437034", "rating": 4.4, "num_reviews": 82}, {"location_id": "11635931", "name": "Yoga Garden SF", "latitude": "37.77198", "longitude": "-122.43686", "rating": 1.5, "num_reviews": 2}, {"location_id": "12854089", "name": "Sightglass Coffee", "latitude": "37.772317", "longitude": "-122.437488", "rating": 4.0, "num_reviews": 16}, {"location_id": "26956205", "name": "The Page", "latitude": "37.77212", "longitude": "-122.437048", "rating": null, "num_reviews": null}, {"location_id": "4102421", "name": "The Page", "latitude": "37.77211", "longitude": "-122.43689", "rating": 4.0, "num_reviews": 6}, {"location_id": "28132385", "name": "Comix Experience", "latitude": "37.772476", "longitude": "-122.437562", "rating": 4.0, "num_reviews": 1}, {"location_id": "2302983", "name": "Ragazza", "latitude": "37.772448", "longitude": "-122.437475", "rating": 4.2, "num_reviews": 111}]