[{"location_id": "445315", "name": "Chelan Cafe", "latitude": "47.571894", "longitude": "-122.361498", "rating": 3.9, "num_reviews": 41}, {"location_id": "10193476", "name": "Skylark Cafe", "latitude": "47.570026", "longitude": "-122.362399", "rating": 4.7, "num_reviews": 3}, {"location_id": "12513018", "name": "Ounces Taproom & Beer Garden", "latitude": "47.569631", "longitude": "-122.362687", "rating": 4.6, "num_reviews": 5}, {"location_id": "4254090", "name": "Subway", "latitude": "47.568839", "longitude": "-122.363669", "rating": null, "num_reviews": null}, {"location_id": "25328996", "name": "Uptown Espresso West Seattle", "latitude": "47.568745", "longitude": "-122.363617", "rating": null, "num_reviews": null}, {"location_id": "432121", "name": "Delridge Deli", "latitude": "47.568553", "longitude": "-122.363846", "rating": 3.0, "num_reviews": 1}, {"location_id": "27018651", "name": "Bridge Gear Park", "latitude": "47.571877", "longitude": "-122.34946", "rating": null, "num_reviews": null}, {"location_id": "26886795", "name": "Big Alaska Seafood", "latitude": "47.56988", "longitude": "-122.34898", "rating": null, "num_reviews": null}, {"location_id": "27068259", "name": "Dragonfly Pavilion", "latitude": "47.566566", "longitude": "-122.367543", "rating": null, "num_reviews": null}, {"location_id": "432126", "name": "Harbor Marina Deli", "latitude": "47.570504", "longitude": "-122.348011", "rating": null, "num_reviews": null}, {"location_id": "3335274", "name": "Stottle Winery Tasting Room", "latitude": "47.57273", "longitude": "-122.37042", "rating": null, "num_reviews": null}, {"location_id": "25475584", "name": "The Spot West Seattle", "latitude": "47.570434", "longitude": "-122.370944", "rating": 5.0, "num_reviews": 2}, {"location_id": "479774", "name": "Luna Park Cafe", "latitude": "47.570681", "longitude": "-122.371042", "rating": 4.3, "num_reviews": 129}, {"location_id": "24835759", "name": "Lily's Salvadorean Restaurant And Bar", "latitude": "47.569742", "longitude": "-122.371156", "rating": 4.0, "num_reviews": 2}, {"location_id": "6436790", "name": "Mountain Madness", "latitude": "47.57008", "longitude": "-122.37165", "rating": 4.3, "num_reviews": 35}, {"location_id": "27071079", "name": "Pigeon Point Park", "latitude": "47.561947", "longitude": "-122.356829", "rating": null, "num_reviews": null}, {"location_id": "27041502", "name": "Grindline Skateboards", "latitude": "47.561419", "longitude": "-122.353244", "rating": null, "num_reviews": null}, {"location_id": "28167618", "name": "Herring's House Park", "latitude": "47.561613", "longitude": "-122.35142", "rating": null, "num_reviews": null}, {"location_id": "28167621", "name": "Puget Park", "latitude": "47.559931", "longitude": "-122.357144", "rating": null, "num_reviews": null}, {"location_id": "1517120", "name": "Duwamish Longhouse and Cultural Center", "latitude": "47.56095", "longitude": "-122.35201", "rating": 4.3, "num_reviews": 4}]