[{"location_id": "15124880", "name": "The Montalban", "latitude": "34.100265", "longitude": "-118.326928", "rating": 4.6, "num_reviews": 5}, {"location_id": "605724", "name": "Daddy's Bar and Lounge", "latitude": "34.10015", "longitude": "-118.326539", "rating": null, "num_reviews": null}, {"location_id": "13486573", "name": "Bike Rentals LA", "latitude": "34.100739", "longitude": "-118.3265", "rating": 5.0, "num_reviews": 9}, {"location_id": "25514622", "name": "Float Hollywood", "latitude": "34.100879", "longitude": "-118.327078", "rating": 5.0, "num_reviews": 2}, {"location_id": "21164960", "name": "High-End Hollywood Apartment", "latitude": "34.100378", "longitude": "-118.326059", "rating": null, "num_reviews": null}, {"location_id": "12837171", "name": "Equinox Hollywood Spa", "latitude": "34.099501", "longitude": "-118.326502", "rating": null, "num_reviews": null}, {"location_id": "17519299", "name": "Beverly Hills Touring Company", "latitude": "34.0993", "longitude": "-118.32646", "rating": null, "num_reviews": null}, {"location_id": "25513142", "name": "Everbowl", "latitude": "34.100955", "longitude": "-118.32583", "rating": null, "num_reviews": null}, {"location_id": "810050", "name": "Katsuya", "latitude": "34.101389", "longitude": "-118.326944", "rating": 4.3, "num_reviews": 575}, {"location_id": "10543534", "name": "Iguana Vintage Clothing", "latitude": "34.10138", "longitude": "-118.327425", "rating": 4.8, "num_reviews": 5}, {"location_id": "23687970", "name": "Krispy Rice", "latitude": "34.101491", "longitude": "-118.326923", "rating": null, "num_reviews": null}, {"location_id": "8473709", "name": "Hooray for Hollywood Tours", "latitude": "34.101139", "longitude": "-118.32578", "rating": null, "num_reviews": null}, {"location_id": "25387079", "name": "Northern Cafe-- Hollywood", "latitude": "34.101435", "longitude": "-118.326268", "rating": 5.0, "num_reviews": 1}, {"location_id": "7603086", "name": "Hollywood Farmers Market", "latitude": "34.099773", "longitude": "-118.328194", "rating": 4.3, "num_reviews": 187}, {"location_id": "33439460", "name": "Myx Brew", "latitude": "34.101504", "longitude": "-118.326401", "rating": null, "num_reviews": null}, {"location_id": "493645", "name": "Arclight Cafe Bar", "latitude": "34.101346", "longitude": "-118.327681", "rating": 3.3, "num_reviews": 19}, {"location_id": "15256602", "name": "OG Wingz", "latitude": "34.101181", "longitude": "-118.327933", "rating": 4.0, "num_reviews": 4}, {"location_id": "26865783", "name": "RDEN Bar & Restaurant", "latitude": "34.101456", "longitude": "-118.32619", "rating": 4.5, "num_reviews": 4}, {"location_id": "17838681", "name": "Hollywood Cannabus Tours", "latitude": "34.1012", "longitude": "-118.32794", "rating": null, "num_reviews": null}, {"location_id": "32788083", "name": "One Lux Stay Hollywood View La Suites", "latitude": "34.101219", "longitude": "-118.325737", "rating": null, "num_reviews": null}]