[{"location_id": "14941304", "name": "The Doughboy", "latitude": "37.77246", "longitude": "-122.46848", "rating": 3.0, "num_reviews": 1}, {"location_id": "117151", "name": "Conservatory of Flowers", "latitude": "37.77246", "longitude": "-122.46848", "rating": 4.3, "num_reviews": 514}, {"location_id": "156465", "name": "Golden Gate Park Tennis Center", "latitude": "37.77246", "longitude": "-122.46848", "rating": 4.0, "num_reviews": 2}, {"location_id": "14787133", "name": "Rose Garden", "latitude": "37.77246", "longitude": "-122.46848", "rating": 5.0, "num_reviews": 5}, {"location_id": "28174625", "name": "Hamon Observation Tower", "latitude": "37.771951", "longitude": "-122.468358", "rating": 5.0, "num_reviews": 1}, {"location_id": "27036657", "name": "Blue Playground", "latitude": "37.773064", "longitude": "-122.467444", "rating": null, "num_reviews": null}, {"location_id": "127943", "name": "de Young Museum", "latitude": "37.771572", "longitude": "-122.468492", "rating": 4.4, "num_reviews": 2227}, {"location_id": "28174590", "name": "Artpoint", "latitude": "37.771238", "longitude": "-122.468414", "rating": null, "num_reviews": null}, {"location_id": "14787585", "name": "Music Concourse", "latitude": "37.771319", "longitude": "-122.467959", "rating": 4.5, "num_reviews": 10}, {"location_id": "8556023", "name": "Museum Hack SF", "latitude": "37.771319", "longitude": "-122.467959", "rating": 4.9, "num_reviews": 138}, {"location_id": "642783", "name": "de Young Cafe", "latitude": "37.770969", "longitude": "-122.468942", "rating": 4.0, "num_reviews": 276}, {"location_id": "14927299", "name": "Apple Cider Press statue", "latitude": "37.77063", "longitude": "-122.46869", "rating": 3.0, "num_reviews": 2}, {"location_id": "14884401", "name": "Ulysses Simpson Grant Memorial", "latitude": "37.77063", "longitude": "-122.46869", "rating": 3.5, "num_reviews": 2}, {"location_id": "12579069", "name": "Rise & Grind Coffee and Tea", "latitude": "37.773717", "longitude": "-122.466148", "rating": 4.6, "num_reviews": 11}, {"location_id": "156293", "name": "Art for Children at the de Young Museum", "latitude": "37.7726", "longitude": "-122.46581", "rating": 4.5, "num_reviews": 2}, {"location_id": "34194517", "name": "Udaipur, Rajasthan", "latitude": "37.774098", "longitude": "-122.466207", "rating": null, "num_reviews": null}, {"location_id": "15122729", "name": "Rideout Memorial Fountain", "latitude": "37.770653", "longitude": "-122.467491", "rating": 3.5, "num_reviews": 4}, {"location_id": "34367835", "name": "San francisco", "latitude": "37.7743", "longitude": "-122.46602", "rating": null, "num_reviews": null}, {"location_id": "4660027", "name": "Tea Garden", "latitude": "37.77021", "longitude": "-122.469731", "rating": 4.0, "num_reviews": 9}, {"location_id": "33364750", "name": "Annie's Hot Dogs", "latitude": "37.770483", "longitude": "-122.466677", "rating": 4.0, "num_reviews": 1}]