[{"location_id": "103857", "name": "Asian Art Museum", "latitude": "37.780277", "longitude": "-122.416161", "rating": 4.6, "num_reviews": 1566}, {"location_id": "26812745", "name": "Asian Box", "latitude": "37.780316", "longitude": "-122.416161", "rating": 3.6, "num_reviews": 5}, {"location_id": "557320", "name": "Pioneer Monument", "latitude": "37.77972", "longitude": "-122.41594", "rating": 3.8, "num_reviews": 41}, {"location_id": "23678330", "name": "Chao Pescao", "latitude": "37.780694", "longitude": "-122.416542", "rating": 4.3, "num_reviews": 14}, {"location_id": "19139166", "name": "Vantaggio Suites Abigai", "latitude": "37.78089", "longitude": "-122.41611", "rating": 1.0, "num_reviews": 1}, {"location_id": "20063299", "name": "Abigail Hotel", "latitude": "37.7809", "longitude": "-122.41612", "rating": null, "num_reviews": null}, {"location_id": "14530897", "name": "Tenderloin People's Garden Mural", "latitude": "37.78085", "longitude": "-122.41651", "rating": 4.3, "num_reviews": 3}, {"location_id": "14762797", "name": "Civic Center Power House", "latitude": "37.780683", "longitude": "-122.4168", "rating": 2.7, "num_reviews": 3}, {"location_id": "15094824", "name": "Dragon Fortune", "latitude": "37.77966", "longitude": "-122.41663", "rating": 4.0, "num_reviews": 2}, {"location_id": "559451", "name": "Dashiell Hammett Tour", "latitude": "37.77934", "longitude": "-122.41586", "rating": 5.0, "num_reviews": 5}, {"location_id": "614219", "name": "Heart of the City Farmers' Market", "latitude": "37.779827", "longitude": "-122.41497", "rating": 4.4, "num_reviews": 50}, {"location_id": "28229081", "name": "Sculpture Double L Excentric Gyratory", "latitude": "37.779358", "longitude": "-122.41652", "rating": 5.0, "num_reviews": 1}, {"location_id": "1830811", "name": "San Francisco City Guides", "latitude": "37.77915", "longitude": "-122.4158", "rating": 4.9, "num_reviews": 2401}, {"location_id": "373619", "name": "Golden Era Vegan Restaurant", "latitude": "37.781266", "longitude": "-122.416751", "rating": 4.4, "num_reviews": 173}, {"location_id": "23635254", "name": "Free Walking Tours of San Francisco", "latitude": "37.779082", "longitude": "-122.415796", "rating": 4.8, "num_reviews": 10}, {"location_id": "156656", "name": "San Francisco Public Library", "latitude": "37.779038", "longitude": "-122.415799", "rating": 4.2, "num_reviews": 225}, {"location_id": "4280227", "name": "Subway", "latitude": "37.781322", "longitude": "-122.416824", "rating": 3.3, "num_reviews": 8}, {"location_id": "15066017", "name": "Local Diner", "latitude": "37.778976", "longitude": "-122.415911", "rating": 4.1, "num_reviews": 13}, {"location_id": "26979038", "name": "HoM Korean Kitchen", "latitude": "37.780921", "longitude": "-122.41463", "rating": null, "num_reviews": null}, {"location_id": "28229412", "name": "Civic Center Game Park", "latitude": "37.77991", "longitude": "-122.414413", "rating": 5.0, "num_reviews": 2}]