[{"location_id": "23343567", "name": "Scott's Chowder House", "latitude": "37.332855", "longitude": "-121.887833", "rating": 4.0, "num_reviews": 1}, {"location_id": "25516799", "name": "Go Cool Desserts", "latitude": "37.332855", "longitude": "-121.887833", "rating": null, "num_reviews": null}, {"location_id": "19663175", "name": "San Jose Candy Kitchen", "latitude": "37.332897", "longitude": "-121.887935", "rating": 5.0, "num_reviews": 1}, {"location_id": "21045202", "name": "Scott Seafood Restaurant", "latitude": "37.33294", "longitude": "-121.88773", "rating": 4.5, "num_reviews": 13}, {"location_id": "6199162", "name": "The Blackbird Tavern", "latitude": "37.33294", "longitude": "-121.88773", "rating": null, "num_reviews": null}, {"location_id": "23678323", "name": "Scott's Seafood", "latitude": "37.33294", "longitude": "-121.88773", "rating": 4.0, "num_reviews": 1}, {"location_id": "343121", "name": "Johnny Rockets", "latitude": "37.333014", "longitude": "-121.888056", "rating": 3.7, "num_reviews": 142}, {"location_id": "6384294", "name": "Camera 12 Cinema", "latitude": "37.33297", "longitude": "-121.8874", "rating": 4.6, "num_reviews": 7}, {"location_id": "1370376", "name": "Mosaic", "latitude": "37.332265", "longitude": "-121.88793", "rating": 3.6, "num_reviews": 97}, {"location_id": "32886441", "name": "Eos & Nyx", "latitude": "37.333154", "longitude": "-121.887242", "rating": 5.0, "num_reviews": 2}, {"location_id": "324321", "name": "Four Points by Sheraton San Jose Downtown", "latitude": "37.332123", "longitude": "-121.888193", "rating": 3.9, "num_reviews": 824}, {"location_id": "24178231", "name": "AJI Bar & Robata", "latitude": "37.333101", "longitude": "-121.888728", "rating": null, "num_reviews": null}, {"location_id": "493243", "name": "Fountain Restaurant", "latitude": "37.333144", "longitude": "-121.88872", "rating": 3.8, "num_reviews": 78}, {"location_id": "34436492", "name": "Paradise Touch Spa", "latitude": "37.333058", "longitude": "-121.888797", "rating": null, "num_reviews": null}, {"location_id": "27178378", "name": "The Grill on the Alley", "latitude": "37.333058", "longitude": "-121.888797", "rating": null, "num_reviews": null}, {"location_id": "25503216", "name": "Spicy Vegan Indian", "latitude": "37.333479", "longitude": "-121.888354", "rating": null, "num_reviews": null}, {"location_id": "25546085", "name": "Burger Academy", "latitude": "37.333038", "longitude": "-121.888895", "rating": null, "num_reviews": null}, {"location_id": "4111222", "name": "Starbucks", "latitude": "37.33363", "longitude": "-121.88796", "rating": 4.3, "num_reviews": 12}, {"location_id": "21311512", "name": "Tea Villa", "latitude": "37.33363", "longitude": "-121.88796", "rating": null, "num_reviews": null}, {"location_id": "5101425", "name": "Bijan Bakery and Cafe", "latitude": "37.332659", "longitude": "-121.889002", "rating": 4.1, "num_reviews": 166}]