[{"location_id": "6839054", "name": "Fort Baker", "latitude": "37.833955", "longitude": "-122.478327", "rating": 4.5, "num_reviews": 61}, {"location_id": "6027592", "name": "Bean Sprouts Cafe", "latitude": "37.835337", "longitude": "-122.475554", "rating": 4.2, "num_reviews": 9}, {"location_id": "103953", "name": "Bay Area Discovery Museum", "latitude": "37.835492", "longitude": "-122.475944", "rating": 4.5, "num_reviews": 218}, {"location_id": "7717211", "name": "Vista Point", "latitude": "37.832767", "longitude": "-122.480186", "rating": 4.6, "num_reviews": 789}, {"location_id": "3547005", "name": "Farley", "latitude": "37.837293", "longitude": "-122.478337", "rating": 4.6, "num_reviews": 120}, {"location_id": "1523901", "name": "The Cooking School at Cavallo Point", "latitude": "37.837623", "longitude": "-122.478867", "rating": 4.9, "num_reviews": 65}, {"location_id": "26585416", "name": "Cavallo Point Lodge", "latitude": "37.837629", "longitude": "-122.479358", "rating": 4.0, "num_reviews": 3}, {"location_id": "25164996", "name": "Sula", "latitude": "37.837666", "longitude": "-122.47934", "rating": 5.0, "num_reviews": 4}, {"location_id": "1019362", "name": "Cavallo Point", "latitude": "37.837658", "longitude": "-122.47941", "rating": 4.4, "num_reviews": 1769}, {"location_id": "13343429", "name": "Art by Lucinda", "latitude": "37.83767", "longitude": "-122.47942", "rating": null, "num_reviews": null}, {"location_id": "7592278", "name": "Healing Arts Center & Spa", "latitude": "37.83767", "longitude": "-122.47942", "rating": 2.8, "num_reviews": 4}, {"location_id": "106745", "name": "San Francisco Bay", "latitude": "37.827598", "longitude": "-122.481594", "rating": 4.7, "num_reviews": 7360}, {"location_id": "2440554", "name": "Hendrik Point", "latitude": "37.827533", "longitude": "-122.481738", "rating": 4.7, "num_reviews": 35}, {"location_id": "10122549", "name": "Golden Gate View Point", "latitude": "37.83222", "longitude": "-122.48797", "rating": 4.7, "num_reviews": 178}]