[{"location_id": "426153", "name": "Fraunces Tavern", "latitude": "40.703419", "longitude": "-74.011368", "rating": 4.2, "num_reviews": 1690}, {"location_id": "309430", "name": "Fraunces Tavern Museum", "latitude": "40.703403", "longitude": "-74.011299", "rating": 4.4, "num_reviews": 233}, {"location_id": "26711361", "name": "Green Organic Deli & Juice Bar", "latitude": "40.703202", "longitude": "-74.011351", "rating": null, "num_reviews": null}, {"location_id": "4278813", "name": "Subway", "latitude": "40.703312", "longitude": "-74.011101", "rating": 4.1, "num_reviews": 17}, {"location_id": "3440057", "name": "Bombay's Indian Food", "latitude": "40.703419", "longitude": "-74.011077", "rating": 4.0, "num_reviews": 31}, {"location_id": "27967279", "name": "Wellness Body Studio", "latitude": "40.703226", "longitude": "-74.011078", "rating": null, "num_reviews": null}, {"location_id": "3903182", "name": "The Dead Rabbit", "latitude": "40.703293", "longitude": "-74.011024", "rating": 4.4, "num_reviews": 1447}, {"location_id": "20058729", "name": "787 Coffee Co", "latitude": "40.703545", "longitude": "-74.010908", "rating": 4.7, "num_reviews": 21}, {"location_id": "33322097", "name": "Lucky Tiger", "latitude": "40.703547", "longitude": "-74.010844", "rating": 4.0, "num_reviews": 2}, {"location_id": "13174483", "name": "Essen Financial District", "latitude": "40.703469", "longitude": "-74.011917", "rating": 3.8, "num_reviews": 31}, {"location_id": "15162183", "name": "Just Salad", "latitude": "40.703688", "longitude": "-74.011777", "rating": 5.0, "num_reviews": 1}, {"location_id": "13969708", "name": "Porterhouse Brew Co. Bar", "latitude": "40.703411", "longitude": "-74.010757", "rating": 3.7, "num_reviews": 29}, {"location_id": "34475274", "name": "Toraya Bar", "latitude": "40.703412", "longitude": "-74.010755", "rating": null, "num_reviews": null}, {"location_id": "33669043", "name": "Susukino Ramen", "latitude": "40.70333", "longitude": "-74.010758", "rating": 5.0, "num_reviews": 3}, {"location_id": "4569929", "name": "Potbelly Sandwich Shop", "latitude": "40.7038", "longitude": "-74.011631", "rating": 4.3, "num_reviews": 34}, {"location_id": "426152", "name": "Pranzo Pizza & Pasta", "latitude": "40.703308", "longitude": "-74.010689", "rating": 4.3, "num_reviews": 36}, {"location_id": "34399648", "name": "JW Wellness NYC", "latitude": "40.703814", "longitude": "-74.011741", "rating": null, "num_reviews": null}, {"location_id": "28448481", "name": "Potbelly", "latitude": "40.703814", "longitude": "-74.011741", "rating": null, "num_reviews": null}, {"location_id": "12374674", "name": "ReviTouch", "latitude": "40.70382", "longitude": "-74.01174", "rating": 5.0, "num_reviews": 2}, {"location_id": "7300129", "name": "City Tales Sightseeing & Private Tours", "latitude": "40.703819", "longitude": "-74.011742", "rating": 4.8, "num_reviews": 736}]