[{"location_id": "4230745", "name": "Pizza Moon", "latitude": "34.032108", "longitude": "-118.3091", "rating": 5.0, "num_reviews": 2}, {"location_id": "26492938", "name": "Porto Pizza", "latitude": "34.03146", "longitude": "-118.308762", "rating": null, "num_reviews": null}, {"location_id": "4346550", "name": "Little Caesars", "latitude": "34.030673", "longitude": "-118.3094", "rating": null, "num_reviews": null}, {"location_id": "11951234", "name": "First African Methodist Episcopal Church", "latitude": "34.034231", "longitude": "-118.306148", "rating": 5.0, "num_reviews": 1}, {"location_id": "23621028", "name": "504 Exotics", "latitude": "34.03555", "longitude": "-118.30961", "rating": null, "num_reviews": null}, {"location_id": "33473474", "name": "The Congregational Church of Christian Fellowship", "latitude": "34.038071", "longitude": "-118.307639", "rating": null, "num_reviews": null}, {"location_id": "3612430", "name": "Cashmere Bites", "latitude": "34.03236", "longitude": "-118.301635", "rating": null, "num_reviews": null}, {"location_id": "881850", "name": "Taco Chabelita", "latitude": "34.038673", "longitude": "-118.309243", "rating": 5.0, "num_reviews": 3}, {"location_id": "25471975", "name": "The Burger Blade", "latitude": "34.038684", "longitude": "-118.309231", "rating": null, "num_reviews": null}, {"location_id": "25473180", "name": "THE BURRITO MASTER", "latitude": "34.038684", "longitude": "-118.309231", "rating": null, "num_reviews": null}, {"location_id": "7144479", "name": "El Monge Loco Tortas Gigantes", "latitude": "34.026116", "longitude": "-118.308738", "rating": null, "num_reviews": null}, {"location_id": "14162964", "name": "Tzedek America", "latitude": "34.02822", "longitude": "-118.30293", "rating": 5.0, "num_reviews": 39}, {"location_id": "15165082", "name": "Church's Texas Chicken", "latitude": "34.025802", "longitude": "-118.309358", "rating": 4.0, "num_reviews": 1}, {"location_id": "4456813", "name": "2 for 1 Pizza", "latitude": "34.039524", "longitude": "-118.309551", "rating": null, "num_reviews": null}, {"location_id": "9809482", "name": "Pan Victoria", "latitude": "34.039568", "longitude": "-118.308738", "rating": 4.5, "num_reviews": 2}, {"location_id": "24041166", "name": "Village Restaurant LLC", "latitude": "34.039553", "longitude": "-118.309916", "rating": null, "num_reviews": null}, {"location_id": "20285866", "name": "L.A. Birria Pizza", "latitude": "34.03974", "longitude": "-118.30861", "rating": null, "num_reviews": null}, {"location_id": "4623421", "name": "House of Curry", "latitude": "34.0401", "longitude": "-118.308855", "rating": null, "num_reviews": null}, {"location_id": "15170937", "name": "Orange Door Sushi", "latitude": "34.03235", "longitude": "-118.29958", "rating": 5.0, "num_reviews": 1}, {"location_id": "23732441", "name": "Man vs Fries", "latitude": "34.040177", "longitude": "-118.307932", "rating": null, "num_reviews": null}]