[{"location_id": "626533", "name": "Hollywood Bowl Overlook", "latitude": "34.11631", "longitude": "-118.342781", "rating": 4.4, "num_reviews": 378}, {"location_id": "10020661", "name": "Macy's 4th of July Fireworks", "latitude": "34.112224", "longitude": "-118.34132", "rating": 4.5, "num_reviews": 13}, {"location_id": "28200060", "name": "Hollywood Bowl", "latitude": "34.112252", "longitude": "-118.339121", "rating": null, "num_reviews": null}, {"location_id": "14838279", "name": "Hollywood Bowl", "latitude": "34.111928", "longitude": "-118.339235", "rating": 4.5, "num_reviews": 163}, {"location_id": "560830", "name": "Hollywood Bowl Museum", "latitude": "34.11171", "longitude": "-118.337112", "rating": 4.4, "num_reviews": 1398}, {"location_id": "561785", "name": "Outpost Estates", "latitude": "34.11779", "longitude": "-118.34881", "rating": 4.3, "num_reviews": 3}, {"location_id": "9758331", "name": "Ford Theatres", "latitude": "34.113866", "longitude": "-118.334554", "rating": 4.7, "num_reviews": 18}, {"location_id": "19690699", "name": "Rooms in Hollywood Hills Mansion W/ Gorgeous Views", "latitude": "34.12005", "longitude": "-118.34806", "rating": null, "num_reviews": null}, {"location_id": "277005", "name": "Hollywood Hills", "latitude": "34.109955", "longitude": "-118.336159", "rating": 4.2, "num_reviews": 664}, {"location_id": "17674851", "name": "Hollywood Hill Top Luxury Suites", "latitude": "34.11132", "longitude": "-118.334", "rating": null, "num_reviews": null}, {"location_id": "25454063", "name": "CanneLA", "latitude": "34.108836", "longitude": "-118.338363", "rating": null, "num_reviews": null}, {"location_id": "16754473", "name": "Official Walking Tours", "latitude": "34.1245", "longitude": "-118.34541", "rating": 5.0, "num_reviews": 11}, {"location_id": "156686", "name": "Hollywood Reservoir", "latitude": "34.118008", "longitude": "-118.331238", "rating": 4.4, "num_reviews": 36}, {"location_id": "19990070", "name": "Hollywood Stylish Suites", "latitude": "34.110925", "longitude": "-118.334021", "rating": null, "num_reviews": null}, {"location_id": "28617136", "name": "Vegan Madness", "latitude": "34.108695", "longitude": "-118.337864", "rating": null, "num_reviews": null}, {"location_id": "1545048", "name": "Fantastic Race", "latitude": "34.109286", "longitude": "-118.335831", "rating": 4.9, "num_reviews": 371}, {"location_id": "15551036", "name": "Highland Camrose park", "latitude": "34.10843", "longitude": "-118.33726", "rating": 3.0, "num_reviews": 1}, {"location_id": "129374", "name": "Runyon Canyon Park", "latitude": "34.112595", "longitude": "-118.351166", "rating": 4.5, "num_reviews": 1249}, {"location_id": "116581", "name": "Hollywood Heritage Museum", "latitude": "34.108532", "longitude": "-118.33612", "rating": 4.6, "num_reviews": 25}, {"location_id": "28755296", "name": "A Huevo Cafe Hollywood", "latitude": "34.107333", "longitude": "-118.337837", "rating": null, "num_reviews": null}]