[{"location_id": "268533", "name": "Argonaut Hotel", "latitude": "37.807487", "longitude": "-122.420464", "rating": 4.5, "num_reviews": 8091}, {"location_id": "127927", "name": "San Francisco Maritime Museum/Aquatic Park Bathhouse Building", "latitude": "37.807524", "longitude": "-122.420683", "rating": 4.2, "num_reviews": 111}, {"location_id": "2268041", "name": "Dixie Charters", "latitude": "37.80761", "longitude": "-122.42048", "rating": 5.0, "num_reviews": 3}, {"location_id": "4808869", "name": "San Francisco Maritime National Historical Park's Visitor Center", "latitude": "37.807362", "longitude": "-122.420504", "rating": 4.6, "num_reviews": 76}, {"location_id": "104950", "name": "Aquatic Park", "latitude": "37.807446", "longitude": "-122.420734", "rating": 4.2, "num_reviews": 86}, {"location_id": "1603462", "name": "San Francisco Maritime National Historical Park Ships at Hyde Street Pier", "latitude": "37.807446", "longitude": "-122.420734", "rating": 4.4, "num_reviews": 228}, {"location_id": "104217", "name": "San Francisco Maritime National Historical Park", "latitude": "37.807446", "longitude": "-122.420734", "rating": 4.4, "num_reviews": 694}, {"location_id": "33336622", "name": "Blue Mermaid", "latitude": "37.807609", "longitude": "-122.420347", "rating": null, "num_reviews": null}, {"location_id": "1468199", "name": "Winery Collective", "latitude": "37.807553", "longitude": "-122.420303", "rating": 4.0, "num_reviews": 95}, {"location_id": "4832946", "name": "The Bay Company", "latitude": "37.807778", "longitude": "-122.420556", "rating": 3.4, "num_reviews": 5}, {"location_id": "7188589", "name": "San Francisco Love Tours", "latitude": "37.807526", "longitude": "-122.42091", "rating": 4.9, "num_reviews": 2488}, {"location_id": "4410084", "name": "Ben & Jerry's", "latitude": "37.807381", "longitude": "-122.420167", "rating": 4.2, "num_reviews": 133}, {"location_id": "25474257", "name": "The Ice Cream Shop", "latitude": "37.807381", "longitude": "-122.420167", "rating": null, "num_reviews": null}, {"location_id": "370538", "name": "Blue Mermaid Restaurant", "latitude": "37.807575", "longitude": "-122.420082", "rating": 4.2, "num_reviews": 2168}, {"location_id": "17168692", "name": "George Sterling Park", "latitude": "37.80715", "longitude": "-122.42072", "rating": 4.0, "num_reviews": 1}, {"location_id": "12925664", "name": "The Kingspoke store", "latitude": "37.80715", "longitude": "-122.42072", "rating": null, "num_reviews": null}, {"location_id": "602773", "name": "Capurro's Restaurant and Bar", "latitude": "37.807841", "longitude": "-122.420225", "rating": 3.7, "num_reviews": 828}, {"location_id": "15208129", "name": "Haslett Warehouse", "latitude": "37.80717", "longitude": "-122.42017", "rating": 3.0, "num_reviews": 1}, {"location_id": "2617323", "name": "Flying Ninja Sushi and Bar", "latitude": "37.80755", "longitude": "-122.419944", "rating": 3.9, "num_reviews": 192}, {"location_id": "4258631", "name": "San Francisco Fishing Charter", "latitude": "37.808182", "longitude": "-122.42087", "rating": 5.0, "num_reviews": 147}]